
 >>> NEW RCATS SESSION <<<

 >>> RCATS GPS/Data Logger V 1.9, 19 April 06 <<<

TSP6425A116.1B111.2C0D56E0.0F1.86G9.99H-13.97I2.484J2.504K-142L108.6

TSP6426A116.1B111.2C0D56E0.0F1.57G10.12H-13.57I2.489J2.504K-142L108.6

TSP6427A116.1B110.3C0D60E0.0F1.24G9.99H-13.84I2.489J2.504K-142L108.6

TSP6428A116.1B110.3C0D60E0.0F0.98G10.12H-13.70I2.489J2.523K-142L108.6

TSP6429A113.4B110.3C170D60E0.0F0.75G10.12H-13.43I2.582J2.499K-142L108.6

TSP6430A113.4B110.3C471D60E0.0F0.63G9.99H-13.57I2.538J2.514K-142L109.0

TSP6431A117.1B109.8C759D60E0.0F0.60G10.12H-13.84I2.494J2.509K-142L109.0

TSP6432A117.1B109.8C825D60E0.0F0.66G9.99H-13.43I2.494J2.523K-142L108.6

TSP6433A117.1B109.8C681D60E0.0F0.81G10.12H-14.25I2.689J2.509K-142L108.6

$GPGGA,182626.00,3701.2182,N,07635.3409,W,1,06,1.30,00011,M,-034,M,,*5C

$GPVTG,000.0,T,009.5,M,000.0,N,000.0,K,A*2F

TSP6434A117.1B109.8C694D60E0.0F1.04G9.99H-13.70I2.553J2.533K-142L108.6

TSP6435A111.6B110.7C943D60E0.0F1.36G10.12H-13.70I2.494J2.558K-142L108.6

TSP6436A111.6B110.7C1323D60E0.0F1.68G9.99H-13.70I2.563J2.572K-142L108.6

TSP6437A116.6B110.3C1519D56E0.0F1.98G10.12H-10.58I2.543J2.514K-142L108.6

TSP6438A116.6B110.3C1506D56E0.0F2.24G10.12H-14.11I2.553J2.548K-142L108.6

TSP6439A115.3B110.7C1624D60E0.0F2.42G10.12H-13.97I2.509J2.509K-142L108.6

TSP6440A115.3B110.7C1702D60E0.0F2.47G10.12H-13.97I2.519J2.519K-142L108.6

TSP6441A115.7B110.3C1702D60E0.0F2.42G9.99H-11.80I2.499J2.548K-142L108.6

TSP6442A115.7B110.3C1729D60E0.0F2.24G9.99H-14.38I2.519J2.558K-142L108.6

$GPGGA,182627.00,3701.2182,N,07635.3409,W,1,05,1.52,00011,M,-034,M,,*5A

$GPVTG,000.0,T,009.5,M,000.0,N,000.0,K,A*2F

TSP6443A116.1B110.3C1702D60E0.0F1.98G9.99H-14.11I2.494J2.523K-142L108.6

TSP6444A116.1B110.3C1702D60E0.0F1.68G10.12H-15.87I2.572J2.528K-142L108.6

TSP6445A115.7B109.8C1637D60E0.0F1.36G9.99H-14.11I2.626J2.729K-142L108.6

TSP6446A115.7B109.8C1847D60E0.0F1.07G10.12H-13.84I2.792J2.621K-142L108.6

TSP6447A98.1B110.3C2331D60E0.0F0.81G10.12H-13.70I2.680J2.733K-142L108.6

TSP6448A98.1B110.3C2764D60E0.0F0.66G10.12H-14.11I2.748J2.631K-142L108.6

TSP6449A105.3B110.7C2986D60E0.0F0.60G10.12H-13.84I2.763J2.543K-142L108.6

TSP6450A105.3B110.7C2960D60E0.0F0.63G10.12H-9.09I2.680J2.538K-142L108.6

TSP6451A107.1B110.7C2750D56E0.0F0.75G10.12H-14.38I2.699J2.655K-142L108.6

$GPGGA,182628.00,3701.2182,N,07635.3408,W,1,05,1.52,00011,M,-034,M,,*54

$GPVTG,000.0,T,009.5,M,000.0,N,000.0,K,A*2F

TSP6452A107.1B110.7C2567D56E0.0F0.98G10.12H-13.70I2.729J2.660K-142L108.6

TSP6453A104.9B110.3C2593D60E0.0F1.30G10.12H-13.84I3.573J2.948K-142L108.6

TSP6454A104.9B110.3C2816D60E0.0F1.60G10.12H-13.70I3.251J3.031K-142L108.6

TSP6455A81.9B110.3C3183D60E0.0F1.95G10.12H-13.84I3.080J2.660K-142L108.6

TSP6456A81.9B110.3C3458D60E0.0F2.18G10.12H-14.11I2.719J2.899K-142L108.6

TSP6457A94.1B110.7C3602D60E0.0F2.39G10.12H-13.43I3.041J2.816K-142L108.6

TSP6458A94.1B110.7C3681D60E0.0F2.47G10.12H-13.02I2.724J2.621K-142L108.6

TSP6459A94.1B110.3C3667D60E0.0F2.45G9.99H-14.65I2.660J2.826K-142L108.6

TSP6460A94.1B110.3C3733D60E0.0F2.30G10.12H-14.11I2.724J2.948K-142L108.6

TSP6461A91.4B110.3C3707D60E0.0F2.06G9.99H-14.25I3.026J2.826K-142L108.6

$GPGGA,182629.00,3701.2182,N,07635.3408,W,1,06,1.30,00011,M,-034,M,,*52

$GPVTG,000.0,T,009.5,M,000.0,N,000.0,K,A*2F

TSP6462A91.4B110.3C3707D56E0.0F1.77G9.99H-14.52I2.904J2.929K-142L108.6

TSP6463A90.5B110.7C3851D52E0.0F1.45G9.99H-14.38I2.841J2.807K-142L108.6

TSP6464A90.5B110.7C3982D52E0.0F1.13G9.99H-13.57I2.851J2.738K-142L108.6

TSP6465A92.3B110.3C3982D56E0.0F0.86G9.99H-13.70I2.841J2.685K-142L108.6

TSP6466A92.3B110.3C4021D56E0.0F0.69G10.12H-13.70I2.802J2.812K-142L108.6

TSP6467A86.4B110.7C3929D52E0.0F0.60G10.12H-14.11I3.236J2.851K-142L109.0

TSP6468A86.4B110.7C4047D56E6.9F0.60G10.12H-12.35I3.144J3.114K-142L108.6

TSP6469A87.4B110.3C4074D60E9.7F0.72G10.12H-13.97I3.617J3.046K-142L108.6

TSP6470A87.4B110.3C4191D56E9.7F0.92G10.12H-15.47I3.549J3.007K-142L108.6

$GPGGA,182630.00,3701.2193,N,07635.3400,W,1,06,1.30,00010,M,-034,M,,*53

$GPVTG,010.7,T,020.2,M,003.1,N,005.8,K,A*2A

TSP6471A75.6B109.8C4506D52E11.8F1.22G10.12H-13.84I4.330J2.997K-142L108.6

TSP6472A75.6B109.8C4480D52E13.5F1.54G10.12H-13.57I4.120J3.549K-142L108.6

TSP6473A81.9B110.3C4768D52E15.1F1.86G10.12H-13.57I3.349J3.729K-142L108.6

TSP6474A81.9B110.3C4755D52E16.5F2.15G10.12H-14.11I3.934J3.388K-142L108.6

TSP6475A77.9B109.4C4768D52E17.9F2.36G9.99H-14.25I3.876J3.519K-142L108.6

TSP6476A77.9B109.4C4768D56E19.1F2.45G9.99H-13.97I4.032J3.890K-142L108.6

TSP6477A79.7B109.8C4650D60E19.1F2.45G10.12H-13.43I3.681J3.641K-142L108.6

TSP6478A79.7B109.8C4676D56E20.2F2.30G10.12H-15.19I3.539J3.866K-142L108.6

TSP6479A82.4B109.4C4519D52E22.4F2.06G9.99H-13.97I3.461J3.954K-142L108.6

$GPGGA,182631.00,3701.2209,N,07635.3395,W,1,06,1.30,00010,M,-034,M,,*59

$GPVTG,013.9,T,023.4,M,008.6,N,016.0,K,A*24

TSP6480A82.4B109.4C4584D52E24.3F1.77G10.12H-14.79I4.359J3.969K-142L108.6

TSP6481A81.5B109.8C4729D52E25.2F1.42G10.12H-13.30I4.188J3.519K-142L108.6

TSP6482A81.5B109.8C4702D52E26.1F1.13G9.99H-13.57I3.295J4.013K-142L108.6

TSP6483A81.9B110.3C4611D52E26.9F0.83G9.99H-14.11I4.213J3.510K-142L108.6

TSP6484A81.9B110.3C4584D52E26.9F0.66G10.12H-14.38I3.705J4.037K-142L109.0

TSP6485A79.3B109.8C4781D52E28.6F0.60G10.12H-13.70I4.218J3.280K-142L109.0

TSP6486A79.3B109.8C4781D52E30.1F0.63G9.99H-16.42I3.583J3.759K-142L109.0

TSP6487A97.2B110.3C4663D52E30.9F0.75G9.99H-18.04I4.305J3.739K-142L108.6

TSP6488A97.2B110.3C4598D52E33.0F0.95G10.12H-13.84I3.475J4.144K-142L108.6

$GPGGA,182632.00,3701.2246,N,07635.3385,W,1,06,1.30,00010,M,-034,M,,*50

$GPVTG,011.9,T,021.4,M,017.7,N,032.8,K,A*25

TSP6489A99.9B110.7C4715D52E34.3F1.27G10.12H-14.92I4.222J3.466K-142L108.6

TSP6490A99.9B110.7C4912D52E35.6F1.60G10.12H-12.21I3.427J4.047K-142L108.6

TSP6491A100.8B108.9C4938D52E36.2F1.92G10.12H-11.94I3.290J4.169K-142L108.6

TSP6492A100.8B108.9C4807D52E36.9F2.18G10.12H-12.75I3.632J3.554K-142L108.6

TSP6493A99.9B110.7C4781D52E39.2F2.39G10.25H-14.79I3.827J3.558K-142L108.6

TSP6494A99.9B110.7C4663D52E40.9F2.47G10.12H-14.25I4.164J3.471K-142L108.6

TSP6495A100.4B109.4C4676D52E42.0F2.42G10.12H-13.84I4.066J3.275K-142L108.6

TSP6496A100.4B109.4C4545D52E43.1F2.27G10.25H-13.84I4.310J3.842K-142L108.6

TSP6497A99.0B110.7C4611D52E43.6F2.01G10.12H-12.89I3.388J4.017K-142L108.6

$GPGGA,182633.00,3701.2311,N,07635.3372,W,1,05,2.36,00010,M,-034,M,,*5C

$GPVTG,008.8,T,018.3,M,027.9,N,051.6,K,A*27

TSP6498A99.0B110.7C4637D52E44.1F1.68G10.12H-12.48I4.291J3.969K-142L108.6

TSP6499A99.0B110.3C4624D52E44.6F1.36G9.99H-13.30I3.358J3.993K-142L108.6

TSP6500A99.0B110.3C4637D52E44.6F1.04G10.25H-12.89I3.793J3.949K-142L108.6

TSP6501A99.0B109.8C4650D52E45.6F0.81G10.12H-13.70I3.964J3.998K-142L108.6

TSP6502A99.0B109.8C4742D56E46.6F0.63G10.25H-13.57I4.159J3.900K-142L108.6

TSP6503A99.9B109.8C4715D60E46.6F0.60G10.25H-13.84I3.871J3.270K-142L108.6

TSP6504A99.9B109.8C4807D60E47.1F0.66G10.25H-13.43I4.193J3.466K-142L108.6

TSP6505A100.4B110.7C4807D60E46.6F0.81G10.25H-13.43I3.539J3.993K-142L109.0

TSP6506A100.4B110.7C4846D63E45.6F1.04G10.25H-13.70I3.622J4.017K-142L108.6

$GPGGA,182634.00,3701.2403,N,07635.3358,W,1,05,2.36,00010,M,-034,M,,*57

$GPVTG,006.8,T,016.3,M,036.2,N,067.1,K,A*2E

TSP6507A99.5B109.4C4820D67E46.1F1.36G10.12H-13.84I4.237J3.681K-142L108.6

TSP6508A99.5B109.4C4807D67E47.6F1.68G10.25H-13.70I3.446J3.993K-142L108.6

TSP6509A101.7B110.7C4755D71E48.1F2.01G10.25H-14.11I3.446J4.017K-142L108.6

TSP6510A101.7B110.7C4768D75E47.6F2.27G10.25H-13.30I3.480J3.602K-142L108.6

TSP6511A100.4B109.8C4755D75E48.5F2.42G10.12H-14.11I3.944J3.812K-142L108.6

TSP6512A100.4B109.8C4873D75E49.0F2.47G10.12H-14.11I3.871J3.285K-142L108.6

TSP6513A101.7B109.8C4860D78E48.5F2.39G10.12H-14.92I3.847J3.319K-142L108.6

TSP6514A101.7B109.8C4912D82E49.5F2.18G10.12H-13.97I3.295J3.973K-142L108.6

TSP6515A101.7B110.3C4820D86E50.4F1.89G9.99H-13.84I4.227J3.739K-142L108.6

$GPGGA,182635.00,3701.2511,N,07635.3344,W,1,06,2.32,00014,M,-034,M,,*5A

$GPVTG,005.9,T,015.4,M,039.5,N,073.1,K,A*25

TSP6516A101.7B110.3C4833D90E50.4F1.57G10.12H-13.84I4.120J3.305K-142L108.6

TSP6517A101.3B109.8C4768D90E50.4F1.24G10.12H-13.84I3.266J3.959K-142L108.6

TSP6518A101.3B109.8C4807D93E50.4F0.95G10.12H-14.11I3.998J3.344K-142L108.6

TSP6519A101.7B110.3C4755D97E50.4F0.72G9.99H-14.11I4.037J3.378K-142L108.6

TSP6520A101.7B110.3C4781D97E49.9F0.60G9.99H-13.84I3.383J4.003K-142L109.0

TSP6521A102.2B110.3C4781D101E49.5F0.60G9.99H-12.21I3.524J3.471K-142L109.0

TSP6522A102.2B110.3C4886D105E49.9F0.69G9.99H-13.57I3.959J3.300K-142L108.6

TSP6523A101.3B110.3C4873D108E50.4F0.89G9.99H-13.97I3.319J3.934K-142L108.6

$GPGGA,182636.00,3701.2622,N,07635.3325,W,1,06,2.32,00021,M,-034,M,,*5B

$GPVTG,010.2,T,019.7,M,038.8,N,071.9,K,A*23

TSP6524A101.3B110.3C4873D112E49.9F1.16G10.12H-13.84I3.593J3.881K-142L108.6

TSP6525A101.3B109.4C4742D112E49.5F1.51G9.99H-14.11I4.008J3.358K-142L108.6

TSP6526A101.3B109.4C4742D116E49.5F1.83G9.99H-16.01I3.910J3.227K-142L108.6

TSP6527A101.7B110.7C4624D120E49.5F2.15G9.99H-14.79I3.759J3.695K-142L108.6

TSP6528A101.7B110.7C4663D123E49.9F2.36G10.12H-13.57I3.920J3.876K-142L108.6

TSP6529A101.3B110.3C4584D127E51.3F2.45G10.12H-14.11I4.091J3.554K-142L108.6

TSP6530A101.3B110.3C4598D131E52.1F2.45G9.99H-13.84I4.091J3.378K-142L108.6

TSP6531A101.3B110.7C4532D135E51.3F2.30G9.99H-13.57I4.071J3.466K-142L108.6

TSP6532A101.3B110.7C4545D135E49.9F2.06G9.99H-15.19I3.930J3.217K-142L108.6

$GPGGA,182637.00,3701.2730,N,07635.3298,W,1,06,2.32,00029,M,-034,M,,*57

$GPVTG,013.2,T,022.7,M,038.5,N,071.3,K,A*2F

TSP6533A99.9B109.4C4729D138E49.0F1.74G9.99H-13.84I4.017J3.236K-142L108.6

TSP6534A99.9B109.4C4781D142E48.5F1.42G9.86H-10.72I4.325J3.827K-142L108.6

TSP6535A99.9B109.8C4781D142E49.9F1.10G9.86H-14.38I4.174J3.798K-142L108.6

TSP6536A99.9B109.8C4624D146E50.8F0.83G9.99H-13.70I4.013J3.827K-142L108.6

TSP6537A99.0B109.8C4676D150E49.5F0.66G9.99H-13.84I4.213J3.881K-142L108.6

TSP6538A99.0B109.8C4820D154E49.5F0.60G10.12H-12.48I3.598J3.500K-142L108.6

TSP6539A99.9B110.3C4912D157E49.0F0.63G9.99H-13.84I3.480J3.832K-142L109.0

TSP6540A99.9B110.3C4991D157E49.0F0.78G10.12H-14.52I4.164J3.544K-142L108.6

TSP6541A99.5B110.3C4977D161E50.4F1.01G10.12H-13.97I4.100J3.432K-142L108.6

$GPGGA,182638.00,3701.2838,N,07635.3271,W,1,06,2.32,00038,M,-034,M,,*58

$GPVTG,010.2,T,019.7,M,039.2,N,072.6,K,A*24

TSP6542A99.5B110.3C5043D165E50.4F1.30G10.12H-13.70I4.100J3.246K-142L108.6

TSP6543A100.8B110.3C4991D165E50.4F1.65G10.12H-14.11I3.925J3.241K-142L108.6

TSP6544A100.8B110.3C4991D169E50.4F1.98G10.25H-13.16I3.480J3.939K-142L108.6

TSP6545A99.0B110.3C4912D172E50.4F2.24G10.12H-14.11I3.314J3.905K-142L108.6

TSP6546A99.0B110.3C4925D172E50.8F2.42G10.12H-13.84I3.495J3.632K-142L108.6

TSP6547A100.4B109.8C4873D172E51.3F2.47G10.12H-12.21I3.837J3.314K-142L108.6

TSP6548A100.4B109.8C4899D172E50.4F2.39G10.12H-12.35I3.290J3.954K-142L108.6

TSP6549A97.7B109.4C4846D176E49.0F2.21G10.12H-14.11I3.724J3.183K-142L108.6

$GPGGA,182639.00,3701.2951,N,07635.3252,W,1,07,1.29,00045,M,-034,M,,*54

$GPVTG,005.6,T,015.1,M,041.3,N,076.5,K,A*27

TSP6550A97.7B109.4C4899D180E49.0F1.95G10.25H-13.70I3.485J3.866K-142L108.6

TSP6551A99.9B109.8C4833D184E50.4F1.60G10.12H-13.97I3.475J3.768K-142L108.6

TSP6552A99.9B109.8C4886D187E51.3F1.27G10.12H-13.70I4.125J3.842K-142L108.6

TSP6553A98.1B109.4C4886D187E51.7F0.95G10.25H-13.70I3.475J3.793K-142L108.6

TSP6554A98.1B109.4C5043D187E53.0F0.75G10.25H-13.02I3.378J3.847K-142L108.6

TSP6555A93.6B109.8C5108D191E54.3F0.63G10.25H-13.57I3.876J3.256K-142L108.6

TSP6556A93.6B109.8C5004D195E53.4F0.60G10.12H-12.48I3.339J3.768K-142L108.6

TSP6557A88.7B109.4C4755D199E51.7F0.69G10.12H-13.57I3.270J3.861K-142L108.6

TSP6558A88.7B109.4C4637D203E51.7F0.86G10.12H-14.25I3.978J3.500K-142L108.6

$GPGGA,182640.00,3701.3070,N,07635.3256,W,1,06,2.12,00052,M,-034,M,,*59

$GPVTG,353.4,T,002.9,M,043.5,N,080.5,K,A*26

TSP6559A88.7B109.8C4689D210E52.6F1.16G10.12H-14.11I3.847J3.212K-142L108.6

TSP6560A88.7B109.8C4912D214E53.0F1.48G10.12H-13.84I3.334J3.764K-142L108.6

TSP6561A89.1B109.4C5017D210E52.1F1.80G9.86H-14.25I3.915J3.114K-142L108.6

TSP6562A89.1B109.4C4964D210E51.7F2.09G9.86H-14.11I3.485J3.651K-142L108.6

TSP6563A93.2B109.8C4846D210E53.0F2.33G9.99H-13.57I3.231J3.671K-142L108.6

TSP6564A93.2B109.8C4663D214E55.5F2.45G10.12H-13.30I3.695J3.563K-142L108.6

TSP6565A94.5B109.4C4676D218E56.3F2.45G10.12H-12.75I3.964J3.446K-142L108.6

TSP6566A94.5B109.4C4768D218E55.9F2.33G10.25H-13.97I3.227J3.661K-142L108.6

TSP6567A85.5B109.4C4964D218E56.3F2.09G10.25H-14.38I3.788J3.544K-142L108.6

$GPGGA,182641.00,3701.3189,N,07635.3298,W,1,06,2.12,00059,M,-034,M,,*56

$GPVTG,337.5,T,347.0,M,045.2,N,083.6,K,A*2F

TSP6568A85.5B109.4C4964D221E56.7F1.80G10.25H-14.25I3.651J3.061K-142L108.6

TSP6569A89.1B110.3C4846D225E56.3F1.45G10.25H-13.84I3.285J3.622K-142L108.6

TSP6570A89.1B110.3C4807D225E55.1F1.13G10.25H-13.30I3.690J3.353K-142L108.6

TSP6571A88.7B110.3C4912D229E55.1F0.86G10.25H-13.84I3.817J3.139K-142L108.6

TSP6572A88.7B110.3C4951D233E55.5F0.69G10.25H-14.11I3.183J3.539K-142L108.6

TSP6573A90.9B108.9C4912D233E55.1F0.60G10.25H-13.84I3.661J3.363K-142L109.0

TSP6574A90.9B108.9C4768D237E54.3F0.63G10.25H-12.48I3.109J3.685K-142L108.6

TSP6575A89.6B109.8C4715D240E53.8F0.75G10.12H-15.06I3.827J3.178K-142L108.6

TSP6576A89.6B109.8C4624D240E53.8F0.98G10.12H-14.52I3.827J3.056K-142L108.6

$GPGGA,182642.00,3701.3299,N,07635.3386,W,1,06,2.12,00066,M,-034,M,,*55

$GPVTG,320.6,T,330.1,M,048.2,N,089.3,K,A*29

TSP6577A89.1B109.4C4676D244E53.4F1.27G10.12H-14.25I3.690J2.938K-142L108.6

TSP6578A89.1B109.4C4611D248E53.4F1.63G10.25H-13.97I3.480J3.705K-142L108.6

TSP6579A87.8B108.9C4689D248E53.4F1.95G10.12H-13.97I3.851J3.007K-142L108.6

TSP6580A87.8B108.9C4676D252E52.6F2.21G10.12H-13.84I3.178J3.637K-142L108.6

TSP6581A87.8B108.9C4886D255E52.1F2.39G10.25H-13.70I3.285J3.515K-142L108.6

TSP6582A87.8B108.9C4899D255E52.6F2.47G10.37H-13.84I3.720J3.344K-142L108.6

TSP6583A89.6B109.8C4833D259E53.0F2.42G10.25H-13.43I3.729J3.290K-142L108.2

TSP6584A89.6B109.8C4833D263E52.6F2.24G10.12H-13.57I3.783J3.295K-142L108.6

$GPGGA,182643.00,3701.3383,N,07635.3523,W,1,06,2.12,00072,M,-034,M,,*52

$GPVTG,297.6,T,307.1,M,050.2,N,093.0,K,A*21

TSP6585A87.8B109.8C4742D263E52.1F1.98G10.12H-14.38I3.934J3.358K-142L108.6

TSP6586A87.8B109.8C4742D267E51.7F1.65G10.12H-13.97I3.485J3.309K-142L108.6

TSP6587A87.4B109.4C4650D274E50.4F1.30G10.25H-13.57I3.534J3.495K-142L108.6

TSP6588A87.4B109.4C4689D274E49.0F1.01G10.12H-13.70I3.583J3.607K-142L108.6

TSP6589A86.4B108.9C4650D274E48.5F0.78G10.12H-13.84I3.275J3.505K-142L108.6

TSP6590A86.4B108.9C4768D278E49.0F0.63G10.12H-13.30I3.344J3.602K-142L108.6

TSP6591A84.2B109.4C4768D278E49.5F0.60G10.12H-12.89I3.720J3.446K-142L108.6

TSP6592A84.2B109.4C4912D278E49.0F0.66G10.12H-13.16I3.724J3.241K-142L109.0

TSP6593A86.0B109.4C4860D282E49.0F0.83G10.12H-13.70I3.705J3.363K-142L108.6

$GPGGA,182644.00,3701.3414,N,07635.3715,W,1,06,2.12,00086,M,-034,M,,*50

$GPVTG,271.2,T,280.7,M,061.7,N,114.2,K,A*2E

TSP6594A86.0B109.4C4951D286E49.9F1.10G10.25H-13.57I3.305J3.349K-142L108.6

TSP6595A84.6B108.5C4912D286E49.9F1.42G10.12H-13.84I3.749J3.266K-142L108.6

TSP6596A84.6B108.5C4729D286E49.5F1.74G10.12H-13.70I3.100J3.578K-142L108.6

TSP6597A86.4B108.5C4715D286E49.5F2.09G10.25H-14.38I3.456J3.427K-142L108.6

TSP6598A86.4B108.5C4794D286E49.5F2.30G10.25H-13.84I3.739J3.368K-142L108.2

TSP6599A86.0B108.9C4833D290E49.9F2.45G10.25H-13.97I3.529J3.573K-142L108.6

TSP6600A86.0B108.9C4702D293E50.8F2.45G10.25H-13.57I3.632J3.178K-142L108.6

TSP6601A85.5B108.9C4663D293E51.3F2.36G10.25H-13.97I3.192J3.466K-142L108.6

TSP6602A85.5B108.9C4702D297E51.3F2.15G10.25H-14.38I3.886J3.231K-142L108.2

$GPGGA,182645.00,3701.3391,N,07635.3920,W,1,06,2.12,00099,M,-034,M,,*5D

$GPVTG,253.8,T,263.3,M,056.3,N,104.3,K,A*2D

TSP6603A91.4B108.9C4860D301E51.3F1.83G10.25H-13.84I3.446J3.412K-142L108.6

TSP6604A91.4B108.9C4886D301E50.8F1.51G10.25H-13.97I3.114J3.573K-142L108.6

TSP6605A88.7B109.4C4820D301E50.8F1.16G10.12H-13.30I3.178J3.534K-142L108.6

TSP6606A88.7B109.4C4611D301E51.3F0.89G10.25H-13.57I3.475J3.456K-142L108.6

TSP6607A85.5B108.9C4584D301E51.3F0.69G10.25H-13.84I3.129J3.598K-142L108.6

TSP6608A85.5B108.9C4650D305E51.3F0.60G10.12H-13.97I3.798J3.285K-142L108.6

TSP6609A86.0B108.5C4860D308E51.7F0.60G10.12H-13.84I3.851J3.456K-142L108.6

TSP6610A86.0B108.5C4899D308E52.1F0.72G10.12H-14.65I3.207J3.344K-142L108.6

$GPGGA,182646.00,3701.3329,N,07635.4068,W,1,04,2.70,00099,M,-034,M,,*59

$GPVTG,230.1,T,239.6,M,039.7,N,073.5,K,A*21

TSP6611A83.7B108.9C4860D308E52.1F0.95G10.12H-14.79I3.558J3.583K-142L108.6

TSP6612A83.7B108.9C4663D308E52.1F1.24G10.12H-13.97I3.964J3.192K-142L108.6

TSP6613A85.1B108.9C4637D308E52.1F1.57G9.99H-14.38I3.754J3.373K-142L108.6

TSP6614A85.1B108.9C4676D308E52.1F1.89G9.99H-13.84I3.305J3.549K-142L108.6

TSP6615A84.6B108.9C4650D312E51.7F2.18G9.99H-13.97I3.666J2.968K-142L108.6

TSP6616A84.6B108.9C4558D316E51.7F2.39G9.99H-13.97I3.676J3.090K-142L108.2

TSP6617A83.3B108.9C4584D316E52.1F2.47G9.99H-13.57I3.256J3.397K-142L108.6

TSP6618A83.3B108.9C4663D316E52.1F2.45G9.99H-12.48I3.783J3.285K-142L108.6

TSP6619A84.2B108.0C4715D320E52.1F2.30G9.99H-14.92I3.349J3.402K-142L108.2

$GPGGA,182647.00,3701.3224,N,07635.4186,W,1,04,2.10,00099,M,-034,M,,*53

$GPVTG,217.2,T,226.7,M,061.8,N,114.4,K,A*2B

TSP6620A84.2B108.0C4794D320E52.1F2.04G10.12H-13.57I3.319J3.690K-142L108.6

TSP6621A85.1B108.5C4755D320E52.1F1.71G10.12H-14.11I3.773J3.251K-142L108.6

TSP6622A85.1B108.5C4650D324E52.6F1.39G10.12H-14.25I3.217J3.676K-142L108.6

TSP6623A85.5B108.9C4545D327E53.0F1.07G10.12H-14.25I3.544J3.119K-142L108.6

TSP6624A85.5B108.9C4558D327E53.0F0.81G10.12H-13.97I3.690J3.324K-142L108.6

TSP6625A87.8B108.5C4715D327E53.0F0.66G10.12H-13.70I3.764J3.119K-142L108.6

TSP6626A87.8B108.5C4729D331E52.6F0.60G9.99H-13.84I3.744J3.353K-142L108.6

TSP6627A85.5B108.5C4663D335E52.1F0.63G10.12H-13.70I3.163J3.573K-142L108.6

TSP6628A85.5B108.5C4715D339E52.1F0.78G10.12H-13.70I3.402J3.344K-142L108.6

$GPGGA,182648.00,3701.3081,N,07635.4306,W,1,04,2.10,00099,M,-034,M,,*5B

$GPVTG,210.6,T,220.1,M,061.8,N,114.4,K,A*28

TSP6629A85.5B108.9C4650D339E51.7F1.04G9.99H-14.25I3.100J3.661K-142L108.6

TSP6630A85.5B108.9C4689D339E51.3F1.36G10.12H-13.30I3.778J3.285K-142L108.6

TSP6631A85.5B108.5C4637D343E51.3F1.68G10.12H-14.25I3.280J3.475K-142L108.6

TSP6632A85.5B108.5C4689D346E51.3F2.01G9.99H-13.70I3.402J3.432K-142L108.6

TSP6633A85.5B108.0C4899D350E50.8F2.27G10.12H-13.84I3.700J3.051K-142L108.2

TSP6634A85.5B108.0C4912D354E50.8F2.42G10.12H-14.25I3.622J3.007K-142L108.2

TSP6635A83.3B108.0C4833D354E50.8F2.47G9.99H-14.11I3.266J3.695K-142L108.6

TSP6636A83.3B108.0C4598D358E50.4F2.39G9.99H-13.57I3.739J3.095K-142L108.2

TSP6637A84.2B108.0C4558D362E50.4F2.18G10.12H-15.19I3.471J3.558K-142L108.6

$GPGGA,182649.00,3701.2893,N,07635.4392,W,1,04,5.01,00099,M,-034,M,,*5A

$GPVTG,192.7,T,202.2,M,083.5,N,154.7,K,A*25

TSP6638A84.2B108.0C4598D365E50.8F1.92G9.99H-14.11I3.119J3.451K-142L108.6

TSP6639A84.2B108.9C4833D369E50.8F1.57G9.99H-13.97I3.749J3.056K-142L108.6

TSP6640A84.2B108.9C4912D369E50.4F1.24G10.12H-13.30I3.544J3.388K-142L108.6

TSP6641A82.9B108.0C4899D373E50.4F0.95G10.12H-13.84I3.773J3.012K-142L108.6

TSP6642A82.9B108.0C4676D377E50.4F0.72G10.12H-14.11I3.871J3.173K-142L108.6

TSP6643A82.4B107.6C4598D377E50.4F0.60G10.12H-14.11I3.607J3.456K-142L108.6

TSP6644A82.4B107.6C4624D381E50.4F0.60G9.99H-13.84I3.529J3.378K-142L108.6

TSP6645A83.7B107.6C4873D384E50.8F0.69G10.12H-13.43I3.905J3.324K-142L108.6

TSP6646A83.7B107.6C4912D388E50.8F0.89G10.25H-14.65I3.969J3.422K-142L108.6

$GPGGA,182650.00,3701.2660,N,07635.4450,W,1,04,5.01,00099,M,-034,M,,*59

$GPVTG,190.0,T,199.5,M,086.6,N,160.5,K,A*25

TSP6647A83.7B108.5C4860D392E50.4F1.16G10.12H-14.38I3.290J3.700K-142L108.6

TSP6648A83.7B108.5C4611D392E49.9F1.48G9.99H-15.87I3.363J3.651K-142L108.6

TSP6649A82.9B107.6C4624D396E49.5F1.83G10.12H-14.25I3.153J3.602K-142L108.6

TSP6650A82.9B107.6C4702D400E49.9F2.12G10.12H-13.97I3.456J3.456K-142L108.2

TSP6651A81.9B107.6C4912D403E49.9F2.36G10.12H-13.43I3.075J3.475K-142L108.6

TSP6652A81.9B107.6C4886D407E48.5F2.45G9.99H-14.38I3.119J3.436K-142L108.2

TSP6653A82.4B108.5C4846D411E49.0F2.45G9.99H-13.97I3.290J3.344K-142L108.2

TSP6654A82.4B108.5C4676D415E49.9F2.33G9.99H-13.84I3.026J3.266K-142L108.6

TSP6655A86.0B108.0C4532D419E49.0F2.09G9.99H-13.97I3.153J3.256K-142L108.2

$GPGGA,182651.00,3701.2469,N,07635.4515,W,1,05,3.22,00105,M,-034,M,,*51

$GPVTG,203.3,T,212.8,M,057.0,N,105.5,K,A*2B

TSP6656A86.0B108.0C4545D422E48.1F1.80G9.86H-14.79I3.114J2.748K-142L108.6

TSP6657A89.1B107.6C4715D426E46.6F1.45G9.86H-13.57I2.982J2.802K-142L108.6

TSP6658A89.1B107.6C4663D430E46.6F1.16G9.86H-14.11I3.314J2.792K-142L108.6

TSP6659A90.0B108.0C4506D434E47.6F0.86G9.86H-16.96I3.002J2.699K-142L108.6

TSP6660A90.0B108.0C4336D438E46.6F0.69G9.86H-14.52I3.212J2.841K-142L108.6

TSP6661A92.3B108.0C4480D441E45.6F0.60G9.86H-14.38I3.046J3.095K-142L108.6

TSP6662A92.3B108.0C4558D445E45.1F0.63G9.99H-15.06I2.724J2.777K-142L108.6

TSP6663A94.5B108.0C4637D445E45.1F0.75G9.99H-9.36I2.836J2.943K-142L108.6

TSP6664A94.5B108.0C4611D449E46.1F0.95G9.86H-15.33I3.021J2.694K-142L108.6

$GPGGA,182652.00,3701.2327,N,07635.4592,W,1,05,3.22,00114,M,-034,M,,*50

$GPVTG,203.2,T,212.7,M,054.3,N,100.5,K,A*20

TSP6665A93.2B107.6C4545D453E46.1F1.27G9.99H-14.11I3.085J2.909K-142L108.6

TSP6666A93.2B107.6C4296D453E45.6F1.60G9.86H-13.57I2.797J2.865K-142L108.6

TSP6667A94.1B106.7C4244D453E46.1F1.92G9.99H-13.30I3.080J3.061K-142L108.2

TSP6668A94.1B106.7C4270D457E46.6F2.18G9.99H-13.84I2.909J2.758K-142L108.2

TSP6669A93.6B108.0C4506D460E45.6F2.39G9.99H-10.86I2.865J2.855K-142L108.2

TSP6670A93.6B108.0C4545D460E44.6F2.47G9.86H-13.16I3.095J2.934K-142L108.2

TSP6671A93.2B107.6C4506D460E44.6F2.42G9.86H-13.30I2.812J2.685K-142L108.2

TSP6672A93.2B107.6C4257D464E43.6F2.27G9.86H-14.25I2.909J2.880K-142L108.2

TSP6673A92.7B107.6C4218D468E43.6F2.01G9.86H-14.25I2.938J2.768K-142L108.2

$GPGGA,182653.00,3701.2192,N,07635.4666,W,1,06,1.38,00123,M,-034,M,,*5B

$GPVTG,204.2,T,213.6,M,051.9,N,096.2,K,A*21

TSP6674A92.7B107.6C4270D468E45.1F1.71G9.86H-14.11I3.236J3.041K-142L108.2

TSP6675A93.6B107.1C4244D468E45.1F1.36G9.86H-13.84I2.636J2.978K-142L108.6

TSP6676A93.6B107.1C4296D468E44.6F1.04G9.86H-14.25I3.378J2.675K-142L108.6

TSP6677A90.9B107.1C4257D468E44.6F0.81G9.73H-14.79I3.309J2.787K-142L108.6

TSP6678A90.9B107.1C4296D468E44.1F0.63G9.73H-13.84I3.114J2.953K-142L108.6

TSP6679A90.9B107.1C4257D468E43.1F0.60G9.86H-13.84I2.997J3.070K-142L108.6

TSP6680A90.9B107.1C4309D468E42.0F0.63G9.86H-13.70I3.324J2.675K-142L108.6

TSP6681A90.0B108.0C4296D468E42.0F0.81G9.99H-13.97I2.865J3.070K-142L108.6

TSP6682A90.0B108.0C4375D468E43.1F1.04G9.99H-10.31I2.987J2.787K-142L108.6

$GPGGA,182654.00,3701.2057,N,07635.4735,W,1,07,1.16,00128,M,-034,M,,*55

$GPVTG,200.0,T,209.5,M,052.8,N,097.7,K,A*29

TSP6683A93.6B107.1C4362D468E44.1F1.36G9.99H-14.11I2.909J2.748K-142L108.6

TSP6684A93.6B107.1C4414D468E44.1F1.68G9.99H-13.43I2.821J2.821K-142L108.2

TSP6685A97.2B107.1C4375D468E44.1F2.01G10.12H-14.11I2.963J2.943K-142L108.2

TSP6686A97.2B107.1C4375D472E45.6F2.24G10.25H-14.11I2.948J2.821K-142L108.2

TSP6687A99.5B107.1C4571D476E45.6F2.42G10.12H-13.57I3.344J2.904K-142L108.2

TSP6688A99.5B107.1C4519D476E45.1F2.47G10.12H-12.48I3.041J2.904K-142L108.2

TSP6689A96.4B107.1C4414D476E45.6F2.39G10.12H-12.48I2.909J2.865K-142L108.2

TSP6690A96.4B107.1C4375D476E45.6F2.18G10.12H-13.97I3.046J3.104K-142L108.2

TSP6691A97.2B107.6C4257D476E45.1F1.92G9.99H-13.97I2.875J2.963K-142L108.6

$GPGGA,182655.00,3701.1918,N,07635.4797,W,1,06,1.40,00131,M,-034,M,,*57

$GPVTG,199.1,T,208.6,M,053.8,N,099.7,K,A*26

TSP6692A97.2B107.6C4244D476E44.6F1.60G9.99H-13.43I3.202J2.772K-142L108.6

TSP6693A97.2B107.6C4152D476E44.6F1.24G9.86H-14.25I3.104J2.797K-142L108.6

TSP6694A97.2B107.6C4178D476E44.6F0.95G9.99H-14.11I2.792J2.987K-142L108.6

TSP6695A97.7B107.1C4414D476E44.1F0.75G9.99H-13.70I2.763J2.685K-142L108.6

TSP6696A97.7B107.1C4493D476E43.6F0.63G9.99H-14.11I2.841J2.899K-142L108.6

TSP6697A91.4B106.7C4558D476E43.6F0.60G9.86H-13.97I2.699J2.914K-142L108.6

TSP6698A91.4B106.7C4388D479E43.6F0.69G9.86H-14.38I2.860J2.870K-142L108.6

TSP6699A100.8B106.7C4087D483E43.1F0.86G9.99H-13.84I2.904J2.699K-142L108.6

TSP6700A100.8B106.7C3916D483E43.1F1.13G9.86H-14.79I2.768J2.641K-142L108.6

$GPGGA,182656.00,3701.1775,N,07635.4859,W,1,06,1.40,00132,M,-034,M,,*5F

$GPVTG,199.0,T,208.5,M,055.0,N,101.9,K,A*24

TSP6701A98.6B107.1C3838D483E43.6F1.48G9.99H-13.97I2.938J2.709K-142L108.2

TSP6702A98.6B107.1C4021D483E44.6F1.80G9.99H-13.84I2.841J2.748K-142L108.2

TSP6703A99.5B107.1C4165D483E45.6F2.09G9.99H-13.84I2.909J2.768K-142L108.2

TSP6704A99.5B107.1C4113D483E44.6F2.33G9.99H-13.57I2.934J2.675K-142L108.2

TSP6705A100.4B106.7C3995D483E43.6F2.45G9.99H-14.25I2.797J2.665K-142L108.2

TSP6706A100.4B106.7C3982D487E43.6F2.45G9.99H-14.52I2.846J2.636K-142L108.2

TSP6707A99.5B107.1C3929D491E44.1F2.33G9.99H-12.75I3.021J2.704K-142L108.2

TSP6708A99.5B107.1C3995D491E44.1F2.12G9.99H-13.97I2.660J2.738K-142L108.2

TSP6709A99.0B107.1C3746D491E43.6F1.80G9.99H-13.84I2.860J2.851K-142L108.2

$GPGGA,182657.00,3701.1630,N,07635.4919,W,1,07,1.16,00134,M,-034,M,,*5F

$GPVTG,197.8,T,207.3,M,055.1,N,102.1,K,A*21

TSP6710A99.0B107.1C3877D491E43.6F1.48G9.99H-13.84I2.602J2.812K-142L108.2

TSP6711A97.7B107.1C3956D491E43.6F1.16G9.86H-14.38I2.597J2.772K-142L108.6

TSP6712A97.7B107.1C4087D491E43.6F0.89G9.86H-14.11I2.753J2.738K-142L108.6

TSP6713A98.6B107.6C4165D491E43.6F0.69G9.86H-14.25I2.831J2.646K-142L108.6

TSP6714A98.6B107.6C4008D491E43.6F0.60G9.86H-14.11I2.997J2.704K-142L108.6

TSP6715A96.8B106.2C4074D495E43.6F0.60G9.86H-13.70I2.914J2.880K-142L108.6

TSP6716A96.8B106.2C3903D495E43.1F0.72G9.86H-13.02I2.753J2.733K-142L108.6

TSP6717A97.7B106.7C3956D495E42.6F0.95G9.86H-14.65I2.987J2.680K-142L108.6

$GPGGA,182658.00,3701.1484,N,07635.4977,W,1,07,1.16,00137,M,-034,M,,*56

$GPVTG,196.9,T,206.4,M,054.5,N,101.0,K,A*20

TSP6718A97.7B106.7C3798D495E42.6F1.22G9.86H-13.84I2.890J2.787K-142L108.6

TSP6719A98.6B106.2C3864D495E42.6F1.57G9.86H-13.84I2.958J2.772K-142L108.2

TSP6720A98.6B106.2C3720D498E42.6F1.89G9.99H-13.84I2.797J2.855K-142L108.2

TSP6721A99.5B106.2C3785D498E42.6F2.18G9.99H-14.11I2.914J2.641K-142L108.2

TSP6722A99.5B106.2C3654D498E42.6F2.39G9.86H-13.57I3.017J2.626K-142L108.2

TSP6723A100.8B106.2C3720D498E42.6F2.47G9.86H-12.75I2.968J2.733K-142L108.2

TSP6724A100.8B106.2C3838D498E42.6F2.45G9.86H-15.60I2.626J2.626K-142L108.2

TSP6725A100.4B106.7C3851D498E42.0F2.27G9.99H-12.75I2.714J2.675K-142L108.2

TSP6726A100.4B106.7C3929D498E41.5F2.04G9.99H-14.92I2.807J2.650K-142L108.2

$GPGGA,182659.00,3701.1342,N,07635.5030,W,1,07,1.16,00139,M,-034,M,,*5F

$GPVTG,196.2,T,205.7,M,052.7,N,097.6,K,A*27

TSP6727A100.4B106.7C3943D498E42.0F1.71G9.86H-11.13I2.904J2.646K-142L108.2

TSP6728A100.4B106.7C4021D498E42.6F1.39G9.86H-14.25I2.680J2.733K-142L108.2

TSP6729A99.0B106.2C4047D498E42.6F1.07G9.86H-13.97I2.748J2.665K-142L108.2

TSP6730A99.0B106.2C3877D498E42.6F0.81G9.86H-14.25I2.831J2.611K-142L108.6

TSP6731A99.5B105.8C3956D498E42.6F0.66G9.86H-13.84I2.582J2.831K-142L108.6

TSP6732A99.5B105.8C3825D498E42.0F0.60G9.86H-12.89I2.997J2.670K-142L108.6

TSP6733A99.5B106.2C3916D498E41.5F0.63G9.99H-13.70I2.787J2.909K-142L108.6

TSP6734A99.5B106.2C3785D498E41.5F0.78G9.86H-14.25I2.934J2.855K-142L108.2

TSP6735A99.0B105.8C3890D502E42.0F1.04G9.99H-13.97I2.870J2.748K-142L108.2

$GPGGA,182700.00,3701.1201,N,07635.5079,W,1,07,1.16,00140,M,-034,M,,*57

$GPVTG,194.5,T,204.0,M,052.1,N,096.5,K,A*20

TSP6736A99.0B105.8C3772D502E42.6F1.33G9.99H-13.84I2.953J2.704K-142L108.6

TSP6737A98.6B105.8C3864D498E42.6F1.68G9.99H-13.97I2.665J2.821K-142L108.2

TSP6738A98.6B105.8C3720D498E42.6F1.98G9.99H-14.11I2.660J2.675K-142L108.2

TSP6739A98.6B106.2C3798D498E42.6F2.24G9.86H-14.38I3.100J2.641K-142L108.2

TSP6740A98.6B106.2C3667D498E42.0F2.42G9.86H-13.57I2.880J2.567K-142L108.2

TSP6741A98.1B106.2C3746D498E41.5F2.47G9.86H-12.75I2.699J2.753K-142L108.2

TSP6742A98.1B106.2C3903D498E41.5F2.39G9.86H-13.57I2.885J2.621K-142L108.2

TSP6743A97.7B105.8C3969D498E41.5F2.21G9.86H-15.47I2.851J2.748K-142L108.2

TSP6744A97.7B105.8C4126D498E41.5F1.95G9.86H-14.52I2.860J2.641K-142L108.2

$GPGGA,182701.00,3701.1061,N,07635.5121,W,1,07,1.16,00141,M,-034,M,,*5F

$GPVTG,192.6,T,202.0,M,051.9,N,096.2,K,A*2F

TSP6745A98.6B106.7C3903D498E41.5F1.63G9.86H-15.47I3.085J2.680K-142L108.2

TSP6746A98.6B106.7C4074D498E41.5F1.30G9.86H-11.67I2.753J2.846K-142L108.2

TSP6747A100.8B106.2C3864D498E41.5F0.98G9.86H-14.11I2.885J2.948K-142L108.6

TSP6748A100.8B106.2C4021D498E41.5F0.75G9.86H-14.52I3.002J2.724K-142L108.6

TSP6749A102.2B106.2C3785D498E42.6F0.63G9.99H-13.70I2.870J2.694K-142L108.6

TSP6750A102.2B106.2C3903D498E43.1F0.60G9.99H-13.84I2.660J2.582K-142L108.6

TSP6751A99.9B106.2C3929D498E43.1F0.66G9.99H-11.13I3.021J2.836K-142L108.6

TSP6752A99.9B106.2C4047D498E43.6F0.83G9.99H-14.92I2.719J2.689K-142L108.6

TSP6753A99.5B105.8C4100D498E43.6F1.13G9.99H-13.84I2.670J2.719K-142L108.2

$GPGGA,182702.00,3701.0921,N,07635.5155,W,1,07,1.16,00142,M,-034,M,,*50

$GPVTG,189.0,T,198.4,M,051.1,N,094.7,K,A*28

TSP6754A99.5B105.8C3943D498E44.1F1.45G9.99H-14.11I2.714J2.802K-142L108.2

TSP6755A98.6B105.8C3995D498E44.6F1.77G9.99H-13.84I3.124J2.758K-142L108.2

TSP6756A98.6B105.8C3825D498E44.6F2.06G9.99H-13.57I2.792J2.743K-142L108.2

TSP6757A99.9B105.3C3864D498E44.6F2.33G9.99H-14.11I2.592J2.577K-142L108.2

TSP6758A99.9B105.3C3720D498E44.1F2.45G10.12H-13.43I3.153J2.831K-142L108.2

TSP6759A97.2B104.9C3733D498E44.1F2.45G9.99H-14.38I2.680J2.719K-142L108.2

TSP6760A97.2B104.9C3838D495E44.6F2.36G9.99H-14.11I2.763J2.621K-142L108.2

TSP6761A97.2B105.8C3838D491E44.6F2.12G10.12H-13.43I2.782J2.724K-142L108.2

$GPGGA,182703.00,3701.0783,N,07635.5179,W,1,06,1.29,00140,M,-034,M,,*56

$GPVTG,186.7,T,196.2,M,049.4,N,091.4,K,A*22

TSP6762A97.2B105.8C3943D491E44.6F1.83G10.12H-13.70I2.777J2.758K-142L108.2

TSP6763A99.5B104.9C3929D491E44.6F1.51G9.99H-14.11I2.743J2.646K-142L108.2

TSP6764A99.5B104.9C3982D491E45.1F1.19G10.12H-13.02I2.772J2.606K-142L108.2

TSP6765A98.6B105.8C3956D491E45.6F0.89G10.12H-14.38I2.670J2.807K-142L108.2

TSP6766A98.6B105.8C4021D491E45.6F0.69G10.12H-14.11I2.753J2.733K-142L108.6

TSP6767A99.5B105.3C3969D491E45.6F0.60G10.12H-13.16I2.587J2.729K-142L108.6

TSP6768A99.5B105.3C3995D491E45.6F0.60G10.12H-12.35I3.021J2.606K-142L108.6

TSP6769A100.4B105.8C3929D487E45.6F0.72G10.12H-13.02I2.753J2.758K-142L108.2

TSP6770A100.4B105.8C3929D483E46.1F0.95G10.12H-13.57I2.919J2.733K-142L108.2

$GPGGA,182704.00,3701.0656,N,07635.5157,W,1,06,1.29,00138,M,-034,M,,*5B

$GPVTG,157.2,T,166.7,M,046.5,N,086.1,K,A*2C

TSP6771A100.8B106.2C3838D483E46.1F1.24G9.99H-13.43I2.733J2.807K-142L108.2

TSP6772A100.8B106.2C3812D483E45.6F1.57G9.99H-13.57I2.733J2.709K-142L108.2

TSP6773A95.4B104.9C4034D483E45.6F1.92G10.12H-14.11I3.031J2.665K-142L108.2

TSP6774A95.4B104.9C4047D483E45.1F2.18G10.12H-13.84I2.860J2.846K-142L108.2

TSP6775A95.4B105.3C3995D483E44.6F2.39G10.12H-14.11I2.724J2.660K-142L108.2

TSP6776A95.4B105.3C4021D483E44.6F2.47G9.99H-14.11I2.548J2.812K-142L108.2

TSP6777A99.0B104.4C3995D483E44.6F2.42G9.99H-13.30I2.763J2.841K-142L108.2

TSP6778A99.0B104.4C4060D483E44.6F2.27G9.99H-14.38I2.724J2.963K-142L108.2

TSP6779A99.5B105.3C3851D483E44.6F2.01G10.12H-14.11I2.772J2.855K-142L108.2

$GPGGA,182705.00,3701.0541,N,07635.5082,W,1,05,2.61,00138,M,-034,M,,*5A

$GPVTG,148.4,T,157.8,M,046.5,N,086.2,K,A*2A

TSP6780A99.5B105.3C3929D483E44.6F1.71G10.12H-14.11I2.895J2.763K-142L108.2

TSP6781A99.0B104.9C3916D483E44.6F1.36G10.12H-13.57I2.724J2.646K-142L108.2

TSP6782A99.0B104.9C3890D487E44.6F1.04G10.12H-13.16I3.212J2.641K-142L108.2

TSP6783A97.2B105.3C3851D487E44.1F0.81G9.99H-14.38I2.680J2.743K-142L108.2

TSP6784A97.2B105.3C3929D483E43.6F0.66G9.99H-13.84I2.685J2.807K-142L108.6

TSP6785A99.5B105.3C3943D483E43.6F0.60G9.99H-15.74I2.919J2.836K-142L108.6

TSP6786A99.5B105.3C4060D483E43.6F0.63G10.12H-12.48I2.802J2.934K-142L108.6

TSP6787A97.7B104.9C4087D483E43.6F0.81G10.12H-14.92I2.880J2.543K-142L108.6

$GPGGA,182706.00,3701.0483,N,07635.4974,W,1,05,2.61,00138,M,-034,M,,*57

$GPVTG,097.6,T,107.1,M,036.3,N,067.3,K,A*28

TSP6788A97.7B104.9C4152D483E44.1F1.04G10.12H-14.38I2.724J2.626K-142L108.2

TSP6789A98.6B104.0C4139D483E44.1F1.36G9.99H-14.11I2.899J2.738K-142L108.2

TSP6790A98.6B104.0C3916D483E43.1F1.68G9.99H-13.97I2.851J2.675K-142L108.2

TSP6791A97.7B104.4C3956D483E42.6F2.01G9.99H-14.11I2.650J2.904K-142L108.2

TSP6792A97.7B104.4C3798D483E42.6F2.27G9.99H-14.11I2.836J2.890K-142L108.2

TSP6793A98.6B104.4C3851D483E42.6F2.42G9.99H-13.97I2.973J2.831K-142L108.2

TSP6794A98.6B104.4C3694D483E42.6F2.47G9.99H-13.84I2.880J2.875K-142L108.2

TSP6795A97.2B104.4C3746D483E42.6F2.39G9.86H-14.25I2.694J2.802K-142L108.2

TSP6796A97.2B104.4C3890D483E42.6F2.18G9.99H-15.19I3.007J2.582K-142L108.2

$GPGGA,182707.00,3701.0494,N,07635.4858,W,1,05,3.23,00137,M,-034,M,,*57

$GPVTG,068.8,T,078.2,M,032.0,N,059.2,K,A*27

TSP6797A97.7B104.4C3943D483E42.6F1.92G9.86H-14.11I2.929J2.631K-142L108.2

TSP6798A97.7B104.4C4074D483E42.6F1.60G9.86H-14.52I2.938J2.851K-142L108.2

TSP6799A95.0B105.3C3838D483E42.6F1.24G9.86H-14.11I2.890J2.914K-142L108.2

TSP6800A95.0B105.3C3982D483E42.6F0.95G9.86H-13.84I2.768J2.704K-142L108.2

TSP6801A96.4B104.9C3759D483E42.6F0.75G9.99H-13.57I2.704J2.733K-142L108.2

TSP6802A96.4B104.9C3890D483E42.6F0.63G9.99H-14.25I2.782J2.836K-142L108.2

TSP6803A94.5B105.3C3956D483E42.0F0.60G9.86H-14.79I2.792J2.792K-142L108.6

TSP6804A94.5B105.3C4074D483E42.0F0.69G9.86H-15.87I2.685J2.826K-142L108.6

TSP6805A95.0B104.4C4139D483E42.0F0.86G9.86H-15.19I2.831J2.675K-142L108.2

$GPGGA,182708.00,3701.0535,N,07635.4765,W,1,05,1.39,00138,M,-034,M,,*55

$GPVTG,053.6,T,063.1,M,029.1,N,053.8,K,A*23

TSP6806A95.0B104.4C3969D483E42.0F1.13G9.86H-15.19I2.763J2.553K-142L108.2

TSP6807A94.1B104.0C4034D483E42.6F1.45G9.99H-13.97I2.660J2.636K-142L108.2

TSP6808A94.1B104.0C3864D483E42.6F1.80G9.86H-14.11I2.982J2.792K-142L108.2

TSP6809A95.0B105.3C3903D483E42.6F2.09G9.99H-14.11I3.153J2.714K-142L108.2

TSP6810A95.0B105.3C3720D479E42.6F2.33G9.86H-13.84I2.665J2.909K-142L108.2

TSP6811A95.4B104.0C3746D476E42.6F2.45G9.86H-14.38I2.821J2.636K-142L108.2

TSP6812A95.4B104.0C3864D476E42.6F2.45G9.99H-9.36I2.875J2.655K-142L108.2

TSP6813A93.2B104.9C3916D476E42.6F2.33G9.86H-13.02I2.758J2.665K-142L108.2

TSP6814A93.2B104.9C4060D476E42.6F2.12G9.86H-14.25I2.919J2.821K-142L108.2

$GPGGA,182709.00,3701.0601,N,07635.4706,W,1,06,1.30,00138,M,-034,M,,*5F

$GPVTG,020.1,T,029.6,M,031.3,N,057.9,K,A*27

TSP6815A93.6B104.9C3825D476E42.6F1.83G9.99H-13.70I2.719J2.650K-142L108.2

TSP6816A93.6B104.9C3929D476E42.6F1.51G9.99H-13.43I2.807J2.680K-142L108.2

TSP6817A93.6B104.9C3956D476E43.1F1.16G9.99H-13.30I2.865J2.816K-142L108.2

TSP6818A93.6B104.9C4047D476E43.6F0.89G9.99H-14.25I2.826J2.650K-142L108.2

TSP6819A96.4B105.3C4074D476E43.6F0.69G9.99H-13.57I2.929J2.748K-142L108.6

TSP6820A96.4B105.3C3877D476E44.1F0.60G9.99H-13.70I3.212J2.685K-142L108.2

TSP6821A94.5B105.3C3890D476E44.6F0.60G9.99H-14.52I2.719J2.729K-142L108.6

TSP6822A94.5B105.3C3956D476E44.1F0.72G9.99H-12.75I2.992J2.904K-142L108.6

TSP6823A94.5B104.0C4191D476E43.6F0.92G9.99H-14.92I2.597J2.733K-142L108.2

$GPGGA,182710.00,3701.0686,N,07635.4673,W,1,06,1.30,00137,M,-034,M,,*54

$GPVTG,013.8,T,023.3,M,032.4,N,060.0,K,A*28

TSP6824A94.5B104.0C4165D476E43.6F1.22G9.99H-14.11I2.992J2.826K-142L108.2

TSP6825A92.3B104.9C4021D476E43.6F1.54G9.99H-13.70I3.080J2.699K-142L108.2

TSP6826A92.3B104.9C3903D476E43.6F1.86G9.99H-14.52I2.655J2.787K-142L108.2

TSP6827A91.9B104.9C3956D476E43.6F2.15G9.99H-13.84I2.963J2.655K-142L108.2

TSP6828A91.9B104.9C4060D476E44.1F2.36G9.99H-13.57I2.729J2.694K-142L108.2

TSP6829A91.4B103.1C4074D476E44.6F2.45G9.99H-14.25I2.812J2.748K-142L108.2

TSP6830A91.4B103.1C4165D476E44.6F2.45G9.99H-13.70I2.592J2.680K-142L108.2

TSP6831A91.9B104.0C4165D476E44.6F2.30G10.12H-12.48I2.826J2.665K-142L108.2

TSP6832A91.9B104.0C4231D476E44.6F2.06G9.99H-13.70I2.953J2.597K-142L108.2

$GPGGA,182711.00,3701.0776,N,07635.4647,W,1,07,1.16,00136,M,-034,M,,*58

$GPVTG,012.8,T,022.3,M,033.1,N,061.4,K,A*29

TSP6833A91.4B103.1C4205D476E44.6F1.74G9.99H-14.11I2.675J2.934K-142L108.2

TSP6834A91.4B103.1C4257D476E44.6F1.42G9.99H-13.97I3.124J2.812K-142L108.2

TSP6835A92.3B104.4C4244D476E44.6F1.10G9.99H-13.70I2.885J2.880K-142L108.2

TSP6836A92.3B104.4C4336D476E44.6F0.83G9.99H-13.84I2.948J2.680K-142L108.6

TSP6837A96.8B104.4C4100D476E44.1F0.66G9.86H-13.70I2.641J2.602K-142L108.2

TSP6838A96.8B104.4C4047D476E43.6F0.60G9.99H-12.62I2.680J2.616K-142L108.6

TSP6839A95.9B104.4C3746D476E43.6F0.63G9.99H-12.62I2.592J2.758K-142L108.2

TSP6840A95.9B104.4C3916D476E43.6F0.78G9.86H-14.52I2.753J2.841K-142L108.2

TSP6841A95.9B103.5C3759D476E43.6F1.01G9.86H-14.25I2.763J2.724K-142L108.2

$GPGGA,182712.00,3701.0867,N,07635.4621,W,1,07,1.16,00136,M,-034,M,,*54

$GPVTG,013.3,T,022.8,M,033.6,N,062.2,K,A*2A

TSP6842A95.9B103.5C3995D476E43.6F1.30G9.86H-14.25I2.802J2.641K-142L108.2

TSP6843A95.4B104.4C3851D476E43.6F1.65G9.86H-16.14I2.553J2.563K-142L108.2

TSP6844A95.4B104.4C4087D476E44.1F1.98G9.99H-14.65I2.699J2.689K-142L108.2

TSP6845A95.4B104.0C3929D476E44.1F2.24G9.99H-13.97I2.870J2.772K-142L108.2

TSP6846A95.4B104.0C3864D476E44.1F2.42G9.99H-13.70I2.777J2.743K-142L108.2

TSP6847A95.9B104.4C3707D476E44.6F2.47G9.99H-12.89I2.855J2.641K-142L108.2

TSP6848A95.9B104.4C3641D476E44.1F2.42G9.99H-14.79I2.772J2.675K-142L108.2

TSP6849A95.4B104.9C3785D476E43.6F2.24G9.99H-14.11I2.709J2.733K-142L108.2

TSP6850A95.4B104.9C3733D476E44.1F1.98G9.99H-14.11I2.772J2.777K-142L108.2

$GPGGA,182713.00,3701.0959,N,07635.4594,W,1,07,1.16,00136,M,-034,M,,*54

$GPVTG,013.0,T,022.5,M,033.4,N,061.8,K,A*2F

TSP6851A95.0B104.0C3890D476E44.6F1.65G9.99H-13.84I2.714J2.606K-142L108.2

TSP6852A95.0B104.0C3838D476E44.6F1.30G9.99H-13.97I2.958J2.758K-142L108.2

TSP6853A95.0B103.5C4008D476E44.6F1.01G9.99H-10.72I2.851J2.841K-142L108.2

TSP6854A95.0B103.5C3956D476E44.6F0.78G9.99H-13.57I2.655J2.631K-142L108.2

TSP6855A96.8B103.5C3995D476E44.1F0.63G9.99H-13.97I2.685J2.782K-142L108.2

TSP6856A96.8B103.5C3943D476E43.6F0.60G9.99H-12.62I2.680J2.738K-142L108.6

TSP6857A94.1B103.1C3838D476E43.6F0.66G9.99H-15.47I2.777J2.636K-142L108.2

TSP6858A94.1B103.1C3929D479E43.6F0.83G9.86H-14.65I2.880J2.660K-142L108.2

TSP6859A94.5B103.5C3812D479E43.1F1.10G9.86H-14.38I2.646J2.616K-142L108.2

$GPGGA,182714.00,3701.1050,N,07635.4570,W,1,07,2.14,00137,M,-034,M,,*58

$GPVTG,011.5,T,021.0,M,032.8,N,060.7,K,A*2D

TSP6860A94.5B103.5C3851D479E42.6F1.39G9.99H-14.25I2.968J2.787K-142L108.2

TSP6861A92.7B103.5C3733D483E42.6F1.74G9.86H-14.25I2.660J2.611K-142L108.2

TSP6862A92.7B103.5C3681D483E42.0F2.04G9.86H-13.84I2.655J2.680K-142L108.2

TSP6863A92.7B103.5C3759D483E41.5F2.30G9.99H-13.70I2.748J2.621K-142L108.2

TSP6864A92.7B103.5C3720D483E41.5F2.45G9.86H-14.52I2.763J2.636K-142L107.9

TSP6865A93.6B103.1C3916D483E41.5F2.45G9.99H-14.25I2.934J2.641K-142L107.9

TSP6866A93.6B103.1C3903D483E40.9F2.39G9.99H-13.97I2.953J2.606K-142L108.2

TSP6867A93.2B104.0C3825D483E40.4F2.18G9.86H-14.65I2.802J2.548K-142L108.2

TSP6868A93.2B104.0C3812D483E40.4F1.89G9.99H-14.38I2.904J2.704K-142L108.2

$GPGGA,182715.00,3701.1138,N,07635.4544,W,1,07,2.14,00138,M,-034,M,,*5E

$GPVTG,015.4,T,024.9,M,031.7,N,058.7,K,A*23

TSP6869A90.9B103.5C3733D487E39.8F1.57G9.86H-13.97I2.987J2.826K-142L108.2

TSP6870A90.9B103.5C3746D487E40.9F1.22G9.86H-13.70I2.689J2.626K-142L108.2

TSP6871A95.9B104.0C3681D487E43.1F0.92G9.99H-13.84I2.875J2.553K-142L108.2

TSP6872A95.9B104.0C3667D487E43.1F0.72G9.99H-13.84I2.948J2.743K-142L108.2

TSP6873A95.0B103.1C3838D487E42.6F0.60G9.99H-13.97I2.855J2.694K-142L108.2

TSP6874A95.0B103.1C3798D487E42.0F0.60G9.99H-14.11I2.655J2.772K-142L108.2

TSP6875A93.2B103.5C3995D487E42.0F0.69G9.99H-13.30I2.880J2.558K-142L108.2

TSP6876A93.2B103.5C3969D487E43.1F0.89G9.99H-13.84I2.792J2.563K-142L108.2

TSP6877A96.4B104.0C3864D487E43.6F1.16G9.99H-13.97I2.958J2.846K-142L108.2

$GPGGA,182716.00,3701.1222,N,07635.4512,W,1,07,2.14,00139,M,-034,M,,*57

$GPVTG,019.5,T,029.0,M,030.9,N,057.2,K,A*2F

TSP6878A96.4B104.0C3825D491E44.1F1.48G9.99H-14.38I2.685J2.611K-142L107.9

TSP6879A97.7B103.5C3707D491E44.6F1.83G9.99H-13.70I2.777J2.831K-142L108.2

TSP6880A97.7B103.5C3943D491E44.1F2.12G9.99H-13.84I2.685J2.748K-142L107.9

TSP6881A95.0B103.1C3812D491E43.6F2.33G9.86H-14.38I2.704J2.709K-142L108.2

TSP6882A95.0B103.1C3956D491E43.6F2.45G9.86H-14.25I2.953J2.802K-142L107.9

TSP6883A90.0B103.5C3838D491E43.1F2.45G9.86H-14.38I2.948J2.665K-142L108.2

TSP6884A90.0B103.5C3785D491E42.6F2.33G9.86H-13.57I2.689J2.807K-142L107.9

TSP6885A90.9B103.1C3746D491E42.6F2.09G9.86H-14.65I2.719J2.670K-142L108.2

TSP6886A90.9B103.1C3694D491E42.0F1.80G9.86H-14.11I2.758J2.870K-142L107.9

$GPGGA,182717.00,3701.1303,N,07635.4472,W,1,07,2.14,00140,M,-034,M,,*5D

$GPVTG,024.5,T,033.9,M,030.7,N,056.8,K,A*26

TSP6887A90.9B103.1C3864D491E41.5F1.45G9.86H-14.52I2.802J2.777K-142L108.2

TSP6888A90.9B103.1C3838D491E42.0F1.13G9.86H-14.25I2.558J2.577K-142L108.2

TSP6889A90.9B103.5C4034D491E42.0F0.86G9.86H-13.97I2.841J2.870K-142L108.2

TSP6890A90.9B103.5C4008D491E41.5F0.69G9.86H-13.97I2.919J2.650K-142L108.2

TSP6891A90.9B104.0C3903D491E42.0F0.60G9.86H-12.08I2.797J2.670K-142L108.2

TSP6892A90.9B104.0C3851D491E42.0F0.60G9.86H-13.70I2.743J2.646K-142L108.2

TSP6893A92.7B103.5C3733D491E42.0F0.75G9.86H-13.84I2.772J2.792K-142L108.2

TSP6894A92.7B103.5C3982D491E42.6F0.95G9.86H-13.97I2.675J2.914K-142L108.2

$GPGGA,182718.00,3701.1380,N,07635.4424,W,1,07,2.14,00141,M,-034,M,,*5B

$GPVTG,029.2,T,038.7,M,030.2,N,055.9,K,A*2E

TSP6895A92.7B104.0C3877D491E42.0F1.24G9.99H-13.97I2.719J2.670K-142L108.2

TSP6896A92.7B104.0C3851D491E42.0F1.57G9.99H-13.70I2.904J2.851K-142L108.2

TSP6897A94.5B102.2C3746D491E42.6F1.92G9.99H-13.84I2.738J2.665K-142L107.9

TSP6898A94.5B102.2C3720D491E42.6F2.18G9.86H-14.11I2.821J2.704K-142L107.9

TSP6899A93.2B103.5C3916D491E42.0F2.39G9.99H-13.97I2.626J2.855K-142L108.2

TSP6900A93.2B103.5C3903D491E41.5F2.47G9.86H-12.48I2.738J2.611K-142L107.9

TSP6901A93.2B102.6C3825D491E41.5F2.42G9.86H-13.57I2.880J2.768K-142L108.2

TSP6902A93.2B102.6C3812D491E41.5F2.27G9.86H-15.47I2.680J2.826K-142L107.9

TSP6903A94.5B103.1C3720D487E42.0F2.01G9.86H-14.25I2.958J2.738K-142L107.9

$GPGGA,182719.00,3701.1454,N,07635.4370,W,1,06,1.25,00141,M,-034,M,,*52

$GPVTG,031.8,T,041.3,M,031.1,N,057.5,K,A*2B

TSP6904A94.5B103.1C3707D483E42.6F1.71G9.99H-13.57I2.904J2.582K-142L108.2

TSP6905A98.1B103.1C3654D483E43.6F1.36G9.86H-13.97I2.660J2.592K-142L108.2

TSP6906A98.1B103.1C3733D483E45.1F1.07G9.99H-13.84I2.895J2.655K-142L108.2

TSP6907A98.6B103.5C3812D483E45.6F0.81G9.99H-13.84I2.631J2.660K-142L108.2

TSP6908A98.6B103.5C3733D483E45.6F0.66G9.99H-13.70I2.611J2.660K-142L108.2

TSP6909A98.6B102.6C3615D483E45.6F0.60G9.86H-13.16I2.792J2.548K-142L108.2

TSP6910A98.6B102.6C3576D483E45.6F0.63G9.99H-14.11I2.821J2.602K-142L108.2

TSP6911A97.7B102.2C3471D483E45.1F0.78G9.99H-13.57I2.753J2.694K-142L108.2

$GPGGA,182720.00,3701.1528,N,07635.4309,W,1,06,1.25,00140,M,-034,M,,*5D

$GPVTG,035.8,T,045.3,M,032.5,N,060.2,K,A*2F

TSP6912A97.7B102.2C3445D483E44.6F1.04G9.86H-14.11I2.768J2.641K-142L108.2

TSP6913A97.7B103.5C3353D483E44.1F1.36G9.86H-13.84I2.626J2.680K-142L107.9

TSP6914A97.7B103.5C3340D483E44.1F1.68G9.99H-13.70I2.753J2.577K-142L107.9

TSP6915A99.0B102.2C3550D483E44.6F2.01G9.86H-14.79I2.611J2.538K-142L107.9

TSP6916A99.0B102.2C3838D483E45.1F2.24G9.86H-14.11I2.577J2.558K-142L107.9

TSP6917A97.7B103.1C4034D483E46.1F2.42G9.73H-14.92I2.597J2.616K-142L107.9

TSP6918A97.7B103.1C4008D483E47.1F2.47G9.86H-8.82I2.826J2.680K-142L107.9

TSP6919A97.7B103.1C3903D483E47.1F2.39G9.86H-15.47I2.758J2.553K-142L107.9

TSP6920A97.7B103.1C3877D479E46.6F2.21G9.86H-14.38I2.650J2.719K-142L107.9

TSP6921A99.0B102.6C3785D479E46.6F1.95G9.99H-13.57I2.582J2.694K-142L107.9

$GPGGA,182721.00,3701.1602,N,07635.4240,W,1,06,1.25,00139,M,-034,M,,*55

$GPVTG,037.5,T,047.0,M,033.5,N,062.1,K,A*21

TSP6922A99.0B102.6C3746D479E46.6F1.63G9.99H-13.16I2.836J2.563K-142L108.2

TSP6923A99.0B102.2C3641D479E46.6F1.27G9.99H-14.52I2.641J2.689K-142L108.2

TSP6924A99.0B102.2C3589D479E46.6F0.98G9.99H-14.11I2.704J2.704K-142L108.2

TSP6925A99.5B103.5C3484D479E46.1F0.75G9.99H-13.57I2.919J2.743K-142L108.2

TSP6926A99.5B103.5C3445D479E46.1F0.63G9.99H-13.70I2.714J2.616K-142L108.2

TSP6927A100.4B103.5C3641D476E46.6F0.60G9.99H-14.38I2.758J2.743K-142L108.2

TSP6928A100.4B103.5C3877D476E46.6F0.66G9.99H-14.79I2.963J2.729K-142L108.2

TSP6929A99.0B102.2C4008D476E46.1F0.86G9.86H-15.19I2.802J2.729K-142L108.2

$GPGGA,182722.00,3701.1678,N,07635.4169,W,1,07,1.13,00138,M,-034,M,,*56

$GPVTG,036.6,T,046.1,M,034.2,N,063.3,K,A*20

TSP6930A99.0B102.2C3916D476E45.6F1.13G9.86H-14.25I2.616J2.694K-142L108.2

TSP6931A98.1B103.1C3772D476E45.1F1.45G9.86H-14.25I2.636J2.733K-142L108.2

TSP6932A98.1B103.1C3733D476E44.6F1.77G9.99H-13.70I2.865J2.558K-142L107.9

TSP6933A98.6B103.1C3628D476E45.1F2.06G9.86H-14.11I2.870J2.597K-142L107.9

TSP6934A98.6B103.1C3602D476E45.6F2.30G9.86H-13.84I2.772J2.704K-142L107.9

TSP6935A99.5B103.1C3510D476E45.1F2.45G9.86H-13.70I2.567J2.592K-142L107.9

TSP6936A99.5B103.1C3484D476E44.6F2.45G9.86H-14.11I2.753J2.704K-142L107.9

TSP6937A97.7B102.6C3405D476E44.6F2.36G9.86H-14.11I2.606J2.577K-142L107.9

TSP6938A97.7B102.6C3392D476E44.1F2.12G9.86H-14.25I2.831J2.772K-142L107.9

$GPGGA,182723.00,3701.1756,N,07635.4099,W,1,07,1.13,00138,M,-034,M,,*54

$GPVTG,035.5,T,045.0,M,034.2,N,063.3,K,A*22

TSP6939A97.7B102.2C3471D476E44.1F1.83G9.86H-14.11I2.865J2.577K-142L107.9

TSP6940A97.7B102.2C3458D476E44.6F1.51G9.86H-13.57I2.646J2.660K-142L107.9

TSP6941A99.5B103.1C3681D476E44.6F1.19G9.99H-13.84I2.665J2.733K-142L108.2

TSP6942A99.5B103.1C3812D476E45.6F0.89G9.99H-13.84I2.675J2.694K-142L108.2

TSP6943A97.7B103.1C4021D476E47.1F0.69G9.99H-14.52I2.611J2.714K-142L108.2

TSP6944A97.7B103.1C3982D476E47.6F0.60G9.86H-13.57I2.685J2.758K-142L108.2

TSP6945A100.4B103.1C3864D476E47.6F0.60G9.99H-11.67I2.807J2.689K-142L108.2

TSP6946A100.4B103.1C3785D476E47.1F0.72G9.86H-14.38I2.709J2.719K-142L108.2

TSP6947A97.7B101.3C3628D476E46.6F0.92G9.86H-14.11I2.680J2.709K-142L108.2

$GPGGA,182724.00,3701.1839,N,07635.4036,W,1,06,2.20,00137,M,-034,M,,*5D

$GPVTG,028.2,T,037.7,M,035.0,N,064.9,K,A*25

TSP6948A97.7B101.3C3536D476E46.1F1.22G9.86H-14.25I2.616J2.650K-142L108.2

TSP6949A99.9B102.6C3405D476E45.6F1.54G9.86H-13.84I2.621J2.675K-142L107.9

TSP6950A99.9B102.6C3353D476E45.6F1.86G9.86H-13.84I2.763J2.694K-142L107.9

TSP6951A100.4B102.6C3523D476E46.6F2.15G9.86H-10.58I2.538J2.738K-142L107.9

TSP6952A100.4B102.6C3733D476E47.1F2.36G9.86H-13.97I2.738J2.577K-142L107.9

TSP6953A99.0B102.2C3864D476E46.6F2.45G9.99H-12.48I2.733J2.563K-142L107.9

TSP6954A99.0B102.2C3785D476E45.6F2.45G9.86H-14.11I2.572J2.729K-142L107.9

TSP6955A99.0B102.2C3667D476E44.6F2.30G9.86H-14.92I2.567J2.704K-142L107.9

TSP6956A99.0B102.2C3654D476E44.6F2.06G9.86H-13.97I2.753J2.636K-142L107.9

$GPGGA,182725.00,3701.1928,N,07635.3985,W,1,06,2.20,00137,M,-034,M,,*5B

$GPVTG,021.3,T,030.8,M,035.2,N,065.2,K,A*2D

TSP6957A98.6B102.6C3576D476E44.6F1.74G9.86H-14.11I2.807J2.729K-142L107.9

TSP6958A98.6B102.6C3563D479E44.6F1.42G9.86H-14.11I2.719J2.655K-142L108.2

TSP6959A96.4B102.6C3471D479E44.1F1.10G9.86H-13.97I2.777J2.553K-142L108.2

TSP6960A96.4B102.6C3458D476E43.6F0.83G9.86H-14.38I2.919J2.724K-142L108.2

TSP6961A95.9B103.1C3379D476E44.1F0.66G9.86H-13.57I2.909J2.646K-142L108.2

TSP6962A95.9B103.1C3366D476E44.1F0.60G9.86H-14.38I2.680J2.611K-142L108.2

TSP6963A97.7B101.7C3550D479E44.1F0.63G9.99H-12.75I2.606J2.724K-142L108.2

TSP6964A97.7B101.7C3550D479E44.6F0.75G9.86H-14.52I2.768J2.655K-142L108.2

TSP6965A97.2B102.2C3772D476E44.6F1.01G9.73H-14.38I2.582J2.699K-142L108.2

$GPGGA,182726.00,3701.2021,N,07635.3945,W,1,06,2.20,00137,M,-034,M,,*57

$GPVTG,017.7,T,027.2,M,034.8,N,064.5,K,A*2D

TSP6966A97.2B102.2C3798D476E44.6F1.30G9.86H-13.70I2.694J2.538K-142L107.9

TSP6967A98.1B102.2C4008D476E44.6F1.63G9.86H-13.57I2.646J2.606K-142L108.2

TSP6968A98.1B102.2C4008D476E44.6F1.95G9.86H-14.25I2.753J2.558K-142L107.9

TSP6969A99.5B102.2C3929D479E44.6F2.21G9.86H-13.84I2.636J2.577K-142L107.9

TSP6970A99.5B102.2C3929D479E45.1F2.39G9.86H-14.38I2.748J2.670K-142L107.9

TSP6971A98.6B102.2C3851D476E45.1F2.47G9.99H-13.84I2.792J2.714K-142L107.9

TSP6972A98.6B102.2C3838D479E44.6F2.42G9.86H-14.79I2.582J2.621K-142L107.9

TSP6973A99.5B102.2C3746D479E45.1F2.24G9.99H-14.52I2.636J2.753K-142L107.9

TSP6974A99.5B102.2C3733D476E45.6F1.98G9.99H-13.84I2.670J2.616K-142L107.9

$GPGGA,182727.00,3701.2114,N,07635.3909,W,1,06,2.20,00137,M,-034,M,,*59

$GPVTG,016.9,T,026.4,M,034.5,N,063.8,K,A*22

TSP6975A99.0B102.2C3654D476E45.6F1.65G9.86H-14.38I2.743J2.660K-142L107.9

TSP6976A99.0B102.2C3641D479E45.6F1.33G9.86H-14.11I2.763J2.646K-142L107.9

TSP6977A97.2B102.2C3550D479E45.6F1.01G9.86H-14.38I2.812J2.582K-142L108.2

TSP6978A97.2B102.2C3536D476E45.1F0.78G9.86H-14.11I2.758J2.572K-142L108.2

TSP6979A98.6B101.7C3458D479E44.6F0.63G9.86H-14.11I2.821J2.704K-142L108.2

TSP6980A98.6B101.7C3445D479E44.6F0.60G9.86H-12.62I2.885J2.680K-142L108.2

TSP6981A99.5B102.2C3353D479E44.6F0.66G9.86H-15.19I2.650J2.563K-142L108.2

TSP6982A99.5B102.2C3340D483E44.6F0.81G9.86H-14.11I2.646J2.631K-142L108.2

TSP6983A100.8B102.2C3563D479E45.1F1.07G9.86H-14.25I2.631J2.709K-142L108.2

$GPGGA,182728.00,3701.2208,N,07635.3878,W,1,06,2.20,00137,M,-034,M,,*5F

$GPVTG,013.9,T,023.4,M,034.2,N,063.4,K,A*29

TSP6984A100.8B102.2C3838D479E45.1F1.39G9.86H-14.25I2.592J2.602K-142L107.9

TSP6985A98.1B101.3C4008D479E45.1F1.74G9.73H-14.11I2.636J2.709K-142L107.9

TSP6986A98.1B101.3C3943D479E45.1F2.04G9.86H-14.25I2.626J2.743K-142L107.9

TSP6987A96.4B101.7C3825D479E44.6F2.30G9.86H-13.84I2.807J2.587K-142L107.9

TSP6988A96.4B101.7C3812D476E44.6F2.45G9.86H-13.84I2.597J2.699K-142L107.9

TSP6989A98.1B102.2C3746D476E44.6F2.45G9.99H-13.70I2.665J2.553K-142L107.9

TSP6990A98.1B102.2C3746D476E44.6F2.39G9.86H-14.92I2.855J2.665K-142L107.9

TSP6991A100.8B102.6C3681D479E44.6F2.18G9.99H-13.84I2.934J2.743K-142L107.9

$GPGGA,182729.00,3701.2303,N,07635.3854,W,1,06,2.20,00137,M,-034,M,,*5A

$GPVTG,009.8,T,019.3,M,034.1,N,063.2,K,A*28

TSP6992A100.8B102.6C3654D479E44.1F1.89G9.99H-13.57I2.807J2.626K-142L107.9

TSP6993A100.8B101.7C3563D476E43.6F1.54G9.86H-14.52I2.641J2.616K-142L107.9

TSP6994A100.8B101.7C3523D476E43.6F1.22G9.86H-14.52I2.685J2.553K-142L108.2

TSP6995A99.0B101.3C3445D479E43.6F0.92G9.86H-13.97I2.797J2.567K-142L107.9

TSP6996A99.0B101.3C3458D479E43.1F0.72G9.86H-14.25I2.841J2.572K-142L108.2

TSP6997A99.0B102.2C3432D476E42.6F0.60G9.73H-14.11I2.572J2.694K-142L108.2

TSP6998A99.0B102.2C3484D479E42.6F0.60G9.86H-14.38I2.899J2.553K-142L108.2

TSP6999A99.5B101.7C3471D483E42.6F0.69G9.86H-12.89I2.655J2.670K-142L108.2

TSP7000A99.5B101.7C3536D479E42.6F0.89G9.86H-13.97I2.865J2.621K-142L107.9

$GPGGA,182730.00,3701.2399,N,07635.3840,W,1,06,2.20,00136,M,-034,M,,*55

$GPVTG,004.1,T,013.6,M,034.3,N,063.5,K,A*26

TSP7001A99.5B102.2C3536D476E42.6F1.19G9.86H-14.25I2.929J2.655K-142L107.9

TSP7002A99.5B102.2C3602D476E42.6F1.51G9.86H-13.43I2.606J2.592K-142L107.9

TSP7003A99.5B101.7C3602D476E42.6F1.83G9.86H-14.11I2.646J2.592K-142L107.9

TSP7004A99.5B101.7C3667D476E42.6F2.12G9.86H-14.25I2.606J2.558K-142L107.9

TSP7005A97.2B101.3C3667D476E43.1F2.36G9.86H-14.25I2.729J2.646K-142L107.9

TSP7006A97.2B101.3C3733D476E43.6F2.45G9.73H-14.38I2.772J2.694K-142L107.9

TSP7007A97.7B102.2C3733D476E43.1F2.45G9.86H-12.62I2.787J2.670K-142L107.9

TSP7008A97.7B102.2C3798D476E42.6F2.33G9.86H-14.25I2.655J2.768K-142L107.9

TSP7009A98.6B101.7C3798D476E42.6F2.09G9.73H-14.38I2.831J2.567K-142L107.9

$GPGGA,182731.00,3701.2497,N,07635.3839,W,1,06,2.20,00135,M,-034,M,,*50

$GPVTG,357.2,T,006.7,M,034.6,N,064.1,K,A*23

TSP7010A98.6B101.7C3864D476E42.6F1.80G9.73H-13.97I2.616J2.670K-142L107.9

TSP7011A99.0B101.7C3877D476E42.6F1.45G9.86H-10.45I2.826J2.621K-142L107.9

TSP7012A99.0B101.7C3956D476E42.6F1.13G9.86H-13.97I2.641J2.748K-142L107.9

TSP7013A99.0B101.3C3969D476E42.6F0.86G9.86H-14.11I2.802J2.577K-142L108.2

TSP7014A99.0B101.3C3759D476E42.6F0.69G9.86H-13.57I2.987J2.714K-142L108.2

TSP7015A97.7B100.8C3759D476E42.6F0.60G9.86H-14.38I2.597J2.592K-142L108.2

TSP7016A97.7B100.8C3536D476E42.6F0.63G9.86H-13.84I2.826J2.743K-142L108.2

TSP7017A99.9B102.2C3536D476E42.6F0.75G9.86H-15.06I2.587J2.582K-142L108.2

TSP7018A99.9B102.2C3314D476E42.6F0.95G9.86H-14.38I2.567J2.597K-142L107.9

$GPGGA,182732.00,3701.2595,N,07635.3851,W,1,06,2.20,00134,M,-034,M,,*5F

$GPVTG,352.8,T,002.3,M,035.0,N,064.7,K,A*2D

TSP7019A99.9B101.3C3327D476E42.6F1.27G9.86H-14.11I2.768J2.567K-142L108.2

TSP7020A99.9B101.3C3392D476E42.6F1.60G9.73H-14.38I2.729J2.563K-142L107.9

TSP7021A97.7B100.8C3405D476E42.6F1.92G9.86H-14.11I2.812J2.592K-142L107.9

TSP7022A97.7B100.8C3471D476E42.6F2.18G9.86H-13.84I2.646J2.724K-142L107.9

TSP7023A98.6B101.7C3484D476E42.0F2.39G9.86H-14.11I2.885J2.567K-142L107.9

TSP7024A98.6B101.7C3550D476E41.5F2.47G9.86H-13.84I2.797J2.626K-142L107.9

TSP7025A97.7B101.7C3563D476E41.5F2.42G9.86H-12.48I2.880J2.626K-142L107.9

TSP7026A97.7B101.7C3641D476E40.9F2.27G9.86H-14.65I2.719J2.567K-142L107.9

TSP7027A97.7B101.7C3667D476E40.4F2.01G9.86H-14.65I2.597J2.597K-142L107.9

$GPGGA,182733.00,3701.2692,N,07635.3869,W,1,07,1.84,00134,M,-034,M,,*5D

$GPVTG,350.6,T,000.1,M,034.6,N,064.0,K,A*21

TSP7028A97.7B101.7C3772D476E40.4F1.68G9.86H-11.13I2.753J2.758K-142L107.9

TSP7029A96.8B100.8C3798D472E40.4F1.36G9.86H-14.38I2.758J2.631K-142L107.9

TSP7030A96.8B100.8C3903D468E40.9F1.04G9.99H-13.30I2.660J2.577K-142L107.9

TSP7031A98.1B101.3C3916D468E41.5F0.81G9.86H-14.79I2.724J2.699K-142L107.9

TSP7032A98.1B101.3C3720D468E40.9F0.63G9.86H-13.43I2.860J2.743K-142L108.2

TSP7033A97.7B102.2C3550D472E40.4F0.60G9.86H-14.11I2.816J2.582K-142L108.2

TSP7034A97.7B102.2C3353D472E40.4F0.63G9.86H-13.02I2.602J2.689K-142L108.2

TSP7035A96.4B101.7C3379D468E40.4F0.81G9.86H-14.11I2.602J2.753K-142L108.2

TSP7036A96.4B101.7C3366D472E40.9F1.04G9.86H-14.38I2.797J2.680K-142L107.9

$GPGGA,182734.00,3701.2787,N,07635.3890,W,1,08,1.81,00133,M,-034,M,,*54

$GPVTG,349.2,T,358.7,M,034.6,N,064.1,K,A*24

TSP7037A97.2B100.4C3379D472E41.5F1.36G9.86H-14.11I2.743J2.733K-142L107.9

TSP7038A97.2B100.4C3458D468E41.5F1.68G9.86H-13.70I2.680J2.694K-142L107.9

TSP7039A97.2B100.4C3471D468E41.5F2.01G9.86H-13.97I2.748J2.689K-142L107.9

TSP7040A97.2B100.4C3563D468E41.5F2.24G9.86H-13.70I2.987J2.729K-142L107.9

TSP7041A98.6B101.7C3589D468E41.5F2.42G9.86H-13.84I2.650J2.563K-142L107.9

TSP7042A98.6B101.7C3681D468E41.5F2.47G9.86H-12.48I2.909J2.719K-142L107.9

TSP7043A97.7B99.9C3694D468E41.5F2.39G9.86H-13.57I2.558J2.577K-142L107.9

TSP7044A97.7B99.9C3798D468E41.5F2.21G9.86H-15.19I2.885J2.631K-142L107.9

TSP7045A98.1B100.8C3851D468E41.5F1.95G9.86H-14.38I2.616J2.602K-142L107.9

$GPGGA,182735.00,3701.2882,N,07635.3911,W,1,08,1.81,00132,M,-034,M,,*56

$GPVTG,350.8,T,000.3,M,033.8,N,062.7,K,A*25

TSP7046A98.1B100.8C3694D468E41.5F1.63G9.86H-13.43I2.680J2.548K-142L107.9

TSP7047A98.1B100.4C3615D468E42.0F1.27G9.86H-13.97I2.719J2.567K-142L107.9

TSP7048A98.1B100.4C3419D468E42.6F0.98G9.86H-13.84I2.880J2.621K-142L107.9

TSP7049A98.6B101.7C3432D468E42.0F0.75G9.86H-13.97I2.665J2.738K-142L107.9

TSP7050A98.6B101.7C3340D468E42.0F0.63G9.86H-14.38I2.904J2.699K-142L108.2

TSP7051A97.2B100.4C3340D468E42.0F0.60G9.86H-12.75I2.709J2.592K-142L107.9

TSP7052A97.2B100.4C3419D468E41.5F0.66G9.86H-15.47I2.675J2.797K-142L107.9

TSP7053A96.4B100.8C3419D468E41.5F0.86G9.73H-14.38I2.621J2.753K-142L107.9

TSP7054A96.4B100.8C3497D468E41.5F1.13G9.86H-13.84I2.777J2.577K-142L107.9

$GPGGA,182736.00,3701.2975,N,07635.3928,W,1,07,1.84,00132,M,-034,M,,*5C

$GPVTG,353.3,T,002.7,M,033.0,N,061.2,K,A*25

TSP7055A97.2B100.8C3497D468E41.5F1.45G9.86H-14.11I2.831J2.626K-142L107.9

TSP7056A97.2B100.8C3576D468E41.5F1.77G9.86H-13.57I2.641J2.572K-142L107.9

TSP7057A95.9B100.4C3589D464E40.9F2.06G9.86H-14.11I2.738J2.670K-142L107.9

TSP7058A95.9B100.4C3681D464E40.4F2.30G9.73H-14.11I2.655J2.582K-142L107.9

TSP7059A95.0B100.4C3707D464E40.4F2.45G9.86H-14.11I3.017J2.758K-142L107.9

TSP7060A95.0B100.4C3798D460E40.9F2.45G9.86H-14.79I2.675J2.548K-142L107.9

TSP7061A94.5B100.8C3825D460E40.9F2.36G9.86H-14.79I2.748J2.724K-142L107.9

TSP7062A94.5B100.8C3916D460E40.9F2.15G9.86H-14.38I2.787J2.719K-142L107.9

TSP7063A96.8B101.3C3943D460E41.5F1.86G9.86H-14.38I2.777J2.567K-142L107.9

$GPGGA,182737.00,3701.3066,N,07635.3938,W,1,05,2.36,00131,M,-034,M,,*5D

$GPVTG,356.6,T,006.1,M,032.3,N,059.8,K,A*24

TSP7064A96.8B101.3C3746D460E41.5F1.54G9.86H-14.11I2.714J2.724K-142L107.9

TSP7065A98.1B100.4C3484D460E41.5F1.19G9.86H-13.70I2.812J2.606K-142L107.9

TSP7066A98.1B100.4C3288D460E41.5F0.92G9.73H-14.52I2.743J2.704K-142L107.9

TSP7067A96.8B100.4C3314D460E41.5F0.72G9.73H-13.97I2.772J2.567K-142L107.9

TSP7068A96.8B100.4C3419D460E41.5F0.60G9.86H-13.97I2.709J2.724K-142L108.2

TSP7069A97.2B101.3C3445D460E41.5F0.60G9.86H-12.08I2.909J2.650K-142L108.2

TSP7070A97.2B101.3C3550D460E41.5F0.72G9.86H-12.89I2.753J2.592K-142L107.9

TSP7071A97.2B100.8C3576D460E41.5F0.92G9.86H-15.06I2.621J2.567K-142L107.9

$GPGGA,182738.00,3701.3156,N,07635.3943,W,1,06,2.20,00130,M,-034,M,,*59

$GPVTG,358.8,T,008.3,M,032.0,N,059.3,K,A*20

TSP7072A97.2B100.8C3681D460E41.5F1.19G9.73H-14.79I2.641J2.563K-142L107.9

TSP7073A95.9B100.4C3707D460E41.5F1.54G9.86H-14.25I2.846J2.743K-142L107.9

TSP7074A95.9B100.4C3798D460E41.5F1.86G9.86H-14.79I2.855J2.772K-142L107.9

TSP7075A96.8B100.8C3825D460E41.5F2.15G9.73H-16.01I2.714J2.626K-142L107.9

TSP7076A96.8B100.8C3929D460E42.0F2.36G9.86H-14.25I2.665J2.675K-142L107.9

TSP7077A96.8B100.8C3956D460E42.6F2.45G9.86H-13.97I2.602J2.616K-142L107.9

TSP7078A96.8B100.8C3759D460E42.6F2.45G9.86H-15.06I2.602J2.709K-142L107.5

TSP7079A96.8B100.4C3484D457E42.6F2.30G9.86H-12.75I2.680J2.631K-142L107.9

TSP7080A96.8B100.4C3288D453E42.6F2.09G9.73H-15.47I2.831J2.636K-142L107.9

$GPGGA,182739.00,3701.3246,N,07635.3943,W,1,06,2.20,00129,M,-034,M,,*52

$GPVTG,001.8,T,011.3,M,032.1,N,059.4,K,A*21

TSP7081A95.9B101.3C3301D453E42.0F1.77G9.73H-14.25I2.558J2.738K-142L107.9

TSP7082A95.9B101.3C3379D453E41.5F1.45G9.73H-14.52I2.875J2.558K-142L107.9

TSP7083A95.4B100.8C3392D453E40.9F1.10G9.73H-14.11I2.592J2.753K-142L107.9

TSP7084A95.4B100.8C3484D453E40.9F0.83G9.86H-13.97I2.763J2.704K-142L107.9

TSP7085A98.6B100.8C3510D453E41.5F0.66G9.86H-14.11I2.719J2.572K-142L107.9

TSP7086A98.6B100.8C3615D453E42.0F0.60G9.86H-12.75I2.602J2.724K-142L107.9

TSP7087A98.6B100.4C3654D453E42.6F0.63G9.86H-14.11I2.763J2.592K-142L107.9

TSP7088A98.6B100.4C3759D453E42.6F0.75G9.73H-14.65I2.631J2.616K-142L107.9

TSP7089A97.7B101.3C3785D449E42.6F0.98G9.73H-13.97I2.855J2.670K-142L107.9

$GPGGA,182740.00,3701.3337,N,07635.3937,W,1,06,2.20,00128,M,-034,M,,*59

$GPVTG,004.8,T,014.3,M,032.3,N,059.9,K,A*2E

TSP7090A97.7B101.3C3877D445E42.6F1.27G9.86H-13.97I2.572J2.553K-142L107.9

