TSP5375A107.6B102.2C0D52E0.0F2.15G8.83H-14.52I2.489J2.509K-142L100.0

TSP5376A107.6B102.2C0D52E0.0F2.36G8.83H-14.79I2.489J2.509K-142L100.0

TSP5377A107.1B101.3C0D52E0.0F2.45G8.83H-14.52I2.489J2.509K-142L100.0

TSP5378A107.1B101.3C0D52E0.0F2.45G8.83H-14.38I2.489J2.509K-142L100.0

TSP5379A107.1B102.2C0D52E0.0F2.33G8.83H-14.65I2.489J2.509K-142L100.0

TSP5380A107.1B102.2C0D52E0.0F2.12G8.83H-14.79I2.489J2.504K-142L100.0

TSP5381A107.6B101.7C0D52E0.0F1.83G8.83H-14.65I2.494J2.509K-142L100.0

TSP5382A107.6B101.7C0D52E0.0F1.51G8.83H-13.16I2.489J2.504K-142L100.0

TSP5383A106.7B101.7C0D52E0.0F1.22G8.83H-15.60I2.484J2.509K-142L100.0

$GPGGA,172751.00,3701.2178,N,07635.3399,W,1,06,1.49,00006,M,-034,M,,*51

$GPVTG,000.0,T,009.5,M,000.0,N,000.0,K,A*2F

TSP5384A106.7B101.7C0D52E0.0F0.95G8.83H-14.65I2.489J2.504K-142L100.0

TSP5385A107.1B101.7C0D52E0.0F0.72G8.83H-14.52I2.489J2.504K-142L100.0

TSP5386A107.1B101.7C0D52E0.0F0.60G8.96H-14.52I2.489J2.509K-142L100.0

TSP5387A106.2B101.7C0D52E0.0F0.57G8.96H-14.79I2.494J2.504K-142L100.0

TSP5388A106.2B101.7C0D52E0.0F0.63G8.96H-14.79I2.489J2.504K-142L100.0

TSP5389A107.1B101.3C0D52E0.0F0.81G8.83H-14.52I2.489J2.509K-142L100.0

TSP5390A107.1B101.3C0D52E0.0F1.04G8.83H-14.38I2.489J2.509K-142L100.0

TSP5391A107.1B101.3C0D52E0.0F1.33G8.83H-14.11I2.489J2.504K-142L100.0

TSP5392A107.1B101.3C0D52E0.0F1.63G8.83H-13.02I2.489J2.509K-142L100.0

TSP5393A106.2B101.7C0D52E0.0F1.95G8.83H-14.92I2.489J2.504K-142L100.0

$GPGGA,172752.00,3701.2178,N,07635.3399,W,1,06,1.49,00006,M,-034,M,,*52

$GPVTG,000.0,T,009.5,M,000.0,N,000.0,K,A*2F

TSP5394A106.2B101.7C0D52E0.0F2.21G8.83H-14.52I2.494J2.509K-142L100.0

TSP5395A107.6B102.2C0D52E0.0F2.39G8.96H-14.38I2.489J2.509K-142L100.0

TSP5396A107.6B102.2C0D52E0.0F2.45G8.83H-14.52I2.489J2.504K-142L100.0

TSP5397A107.1B101.7C0D52E0.0F2.42G8.83H-14.25I2.489J2.509K-142L100.0

TSP5398A107.1B101.7C0D52E0.0F2.30G8.83H-14.38I2.489J2.553K-142L100.0

TSP5399A91.9B101.7C0D52E0.0F2.06G8.83H-14.11I2.499J2.519K-142L100.0

TSP5400A91.9B101.7C0D52E0.0F1.80G8.83H-14.52I2.499J2.528K-142L100.0

TSP5401A105.3B101.7C340D52E0.0F1.48G8.83H-14.92I2.499J2.509K-142L100.0

TSP5402A105.3B101.7C628D52E0.0F1.16G8.83H-15.60I2.489J2.509K-142L100.0

$GPGGA,172753.00,3701.2178,N,07635.3399,W,1,06,1.49,00006,M,-034,M,,*53

$GPVTG,000.0,T,009.5,M,000.0,N,000.0,K,A*2F

TSP5403A106.7B101.7C838D52E0.0F0.89G8.83H-14.92I2.523J2.514K-142L100.0

TSP5404A106.7B101.7C930D52E0.0F0.69G8.96H-14.38I2.509J2.563K-142L100.0

TSP5405A103.1B101.7C864D52E0.0F0.60G8.83H-14.92I2.587J2.519K-142L100.0

TSP5406A103.1B101.7C1100D52E0.0F0.60G8.96H-14.79I2.533J2.646K-142L100.0

TSP5407A88.7B100.8C1375D52E0.0F0.69G8.96H-14.52I2.670J2.597K-142L100.0

TSP5408A88.7B100.8C1742D52E0.0F0.86G8.83H-14.25I2.543J2.558K-142L100.0

TSP5409A98.6B100.8C1925D52E0.0F1.13G8.96H-13.43I2.572J2.592K-142L100.0

TSP5410A98.6B100.8C1912D52E0.0F1.45G8.83H-14.11I2.621J2.519K-142L100.0

TSP5411A100.8B102.6C2017D52E0.0F1.77G8.83H-14.52I2.499J2.558K-142L100.0

$GPGGA,172754.00,3701.2178,N,07635.3399,W,1,06,1.49,00006,M,-034,M,,*54

$GPVTG,000.0,T,009.5,M,000.0,N,000.0,K,A*2F

TSP5412A100.8B102.6C2135D52E0.0F2.06G8.96H-14.52I3.065J2.636K-142L100.4

TSP5413A79.3B102.2C2148D52E0.0F2.30G8.96H-14.52I3.187J2.670K-142L100.0

TSP5414A79.3B102.2C2475D52E0.0F2.42G8.96H-14.11I3.285J2.826K-142L100.4

TSP5415A68.9B101.7C2960D52E0.0F2.45G8.96H-15.06I2.914J2.860K-142L100.4

TSP5416A68.9B101.7C3510D52E0.0F2.36G8.83H-14.38I2.733J2.597K-142L100.0

TSP5417A94.5B101.7C3667D52E0.0F2.15G8.96H-14.79I2.611J2.641K-142L100.0

TSP5418A94.5B101.7C3694D52E0.0F1.92G8.96H-13.02I2.704J2.611K-142L100.0

TSP5419A95.9B101.3C3563D52E0.0F1.60G8.83H-10.18I2.758J2.616K-142L100.0

TSP5420A95.9B101.3C3550D52E0.0F1.27G8.96H-16.28I2.846J2.636K-142L100.0

TSP5421A94.1B101.7C3222D52E0.0F0.98G8.83H-14.92I2.631J2.655K-142L100.4

$GPGGA,172755.00,3701.2178,N,07635.3399,W,1,06,1.49,00006,M,-034,M,,*55

$GPVTG,000.0,T,009.5,M,000.0,N,000.0,K,A*2F

TSP5422A94.1B101.7C3130D52E0.0F0.75G8.83H-14.25I2.626J2.685K-142L100.0

TSP5423A92.7B101.3C3091D48E0.0F0.63G8.83H-16.96I2.572J2.670K-142L100.0

TSP5424A92.7B101.3C3143D48E0.0F0.57G8.83H-15.06I2.611J2.670K-142L100.4

TSP5425A91.9B100.8C3196D52E0.0F0.63G8.83H-14.25I2.963J2.680K-142L100.4

TSP5426A91.9B100.8C3012D52E0.0F0.78G8.96H-14.38I2.782J2.729K-142L100.4

TSP5427A80.1B102.2C3026D52E0.0F1.01G8.96H-14.65I2.895J2.880K-142L100.0

TSP5428A80.1B102.2C3170D52E0.0F1.30G8.96H-13.70I2.890J2.929K-142L100.0

TSP5429A77.9B101.7C3471D52E0.0F1.63G8.83H-15.19I2.904J2.899K-142L100.0

TSP5430A77.9B101.7C3733D52E0.0F1.95G8.83H-15.87I2.826J2.880K-142L100.0

$GPGGA,172756.00,3701.2184,N,07635.3398,W,1,06,1.49,00005,M,-034,M,,*57

$GPVTG,008.9,T,018.4,M,002.2,N,004.1,K,A*2A

TSP5431A77.4B101.3C3943D52E0.0F2.21G8.96H-15.33I3.124J2.924K-142L100.0

TSP5432A77.4B101.3C4034D52E6.9F2.39G8.83H-15.33I3.148J2.792K-142L100.4

TSP5433A75.2B101.7C4270D52E6.9F2.45G8.96H-14.38I3.090J3.227K-142L100.0

TSP5434A75.2B101.7C4205D52E0.0F2.42G8.83H-15.06I2.841J3.036K-142L100.0

TSP5435A73.4B101.7C4375D52E6.9F2.24G8.96H-15.74I3.051J3.227K-142L100.4

TSP5436A73.4B101.7C4296D52E9.7F2.01G8.83H-15.87I3.690J3.314K-142L100.0

TSP5437A69.8B101.3C4309D52E9.7F1.68G8.96H-13.43I3.046J3.344K-142L100.0

TSP5438A69.8B101.3C4139D52E11.8F1.36G8.96H-13.30I3.158J3.715K-142L100.4

TSP5439A65.8B100.8C4205D52E13.5F1.04G8.83H-15.19I3.930J3.261K-142L100.0

$GPGGA,172757.00,3701.2194,N,07635.3395,W,1,06,1.49,00005,M,-034,M,,*5A

$GPVTG,016.7,T,026.1,M,005.2,N,009.6,K,A*2E

TSP5440A65.8B100.8C4191D52E13.5F0.81G8.83H-13.57I4.716J4.061K-142L100.4

TSP5441A64.4B101.7C4191D52E16.5F0.63G8.96H-13.43I4.530J3.900K-142L100.0

TSP5442A64.4B101.7C4113D52E19.1F0.57G8.83H-14.11I4.076J3.334K-142L100.4

TSP5443A68.9B101.3C4191D52E21.3F0.63G8.96H-14.38I4.706J4.178K-142L100.4

TSP5444A68.9B101.3C4244D52E23.3F0.78G8.83H-14.38I4.218J3.446K-142L100.0

TSP5445A85.5B101.7C4322D52E23.3F1.01G8.96H-15.19I3.759J3.886K-142L100.4

TSP5446A85.5B101.7C4257D52E25.2F1.30G8.96H-14.38I4.208J3.461K-142L100.0

TSP5447A86.0B101.3C4336D52E26.9F1.63G8.83H-15.87I4.418J4.349K-142L100.0

TSP5448A86.0B101.3C4244D52E27.8F1.98G8.70H-14.38I3.939J4.486K-142L100.0

$GPGGA,172758.00,3701.2218,N,07635.3386,W,1,06,1.49,00005,M,-034,M,,*50

$GPVTG,018.1,T,027.6,M,011.8,N,021.8,K,A*2B

TSP5449A84.6B101.3C4322D48E29.4F2.21G8.83H-15.87I4.188J3.568K-142L100.4

TSP5450A84.6B101.3C4231D48E31.6F2.39G8.83H-14.25I4.545J4.022K-142L100.0

TSP5451A88.7B100.8C4309D48E33.7F2.45G8.83H-13.97I4.506J4.374K-142L100.0

TSP5452A88.7B100.8C4257D48E34.3F2.39G8.83H-15.60I4.535J3.993K-142L100.4

TSP5453A87.8B102.2C4375D48E35.6F2.21G8.96H-16.82I4.252J3.744K-142L100.4

TSP5454A87.8B102.2C4362D48E37.5F1.98G8.83H-14.65I4.603J4.227K-142L100.4

TSP5455A87.8B101.7C4270D52E39.2F1.65G9.09H-14.11I4.501J3.807K-142L100.4

TSP5456A87.8B101.7C4231D52E40.4F1.33G8.96H-15.33I4.589J4.135K-142L100.0

TSP5457A88.2B101.7C4113D52E40.9F1.01G9.09H-13.57I3.910J3.485K-142L100.4

$GPGGA,172759.00,3701.2267,N,07635.3368,W,1,06,1.49,00005,M,-034,M,,*59

$GPVTG,015.7,T,025.2,M,023.3,N,043.1,K,A*21

TSP5458A88.2B101.7C4296D52E42.0F0.78G8.96H-14.25I3.563J4.213K-142L100.4

TSP5459A88.2B101.7C4205D52E43.1F0.63G9.09H-13.57I4.593J4.257K-142L100.0

TSP5460A88.2B101.7C4178D52E43.1F0.57G9.09H-14.92I3.978J3.456K-142L100.4

TSP5461A90.0B100.8C4060D52E44.1F0.63G9.22H-10.04I3.417J3.983K-142L100.4

TSP5462A90.0B100.8C4008D52E46.6F0.81G9.22H-14.65I4.022J4.222K-142L100.4

TSP5463A86.9B100.8C4060D52E48.5F1.04G9.09H-13.43I3.930J3.349K-142L100.4

TSP5464A86.9B100.8C4165D52E49.9F1.36G9.09H-14.92I4.457J4.105K-142L100.4

TSP5465A88.7B101.3C4191D56E49.9F1.68G9.09H-13.70I3.866J3.451K-142L100.0

TSP5466A88.7B101.3C4283D60E49.0F2.01G8.96H-14.11I4.525J4.091K-142L100.4

$GPGGA,172800.00,3701.2353,N,07635.3344,W,1,06,1.49,00005,M,-034,M,,*52

$GPVTG,010.8,T,020.3,M,034.2,N,063.3,K,A*28

TSP5467A90.0B101.3C4126D60E48.5F2.27G9.09H-13.84I3.402J3.847K-142L100.0

TSP5468A90.0B101.3C4257D60E48.5F2.42G8.96H-14.65I4.325J3.856K-142L100.0

TSP5469A86.4B101.7C4152D63E49.5F2.45G9.09H-14.11I4.506J4.169K-142L100.4

TSP5470A86.4B101.7C4296D67E50.4F2.39G8.96H-14.11I4.218J3.402K-142L100.4

TSP5471A86.9B101.3C4165D67E51.3F2.18G8.96H-14.79I4.403J3.549K-142L100.0

TSP5472A86.9B101.3C4283D67E51.7F1.92G8.96H-14.79I3.715J3.314K-142L100.4

TSP5473A88.2B101.7C4139D71E51.7F1.60G8.96H-13.16I4.086J3.334K-142L100.4

TSP5474A88.2B101.7C4270D75E51.7F1.27G8.83H-14.79I4.496J4.032K-142L100.4

TSP5475A87.4B101.7C4165D78E52.1F0.95G9.09H-13.16I3.930J4.252K-142L100.4

$GPGGA,172801.00,3701.2462,N,07635.3323,W,1,06,1.49,00008,M,-034,M,,*5A

$GPVTG,007.4,T,016.9,M,039.5,N,073.2,K,A*27

TSP5476A87.4B101.7C4322D82E52.6F0.75G8.96H-14.52I4.305J3.549K-142L100.4

TSP5477A90.5B101.7C4205D86E52.1F0.60G9.09H-13.97I4.344J4.174K-142L100.4

TSP5478A90.5B101.7C4309D90E52.1F0.57G8.96H-14.65I3.705J4.218K-142L100.4

TSP5479A90.0B101.7C4152D93E52.6F0.66G9.09H-14.38I4.330J3.954K-142L100.4

TSP5480A90.0B101.7C4270D97E53.0F0.83G8.83H-14.79I3.705J4.237K-142L100.4

TSP5481A90.5B101.3C4126D101E52.6F1.10G8.96H-14.52I3.817J3.378K-142L100.0

TSP5482A90.5B101.3C4231D105E52.6F1.42G8.96H-14.38I4.296J3.778K-142L100.4

TSP5483A74.3B101.3C4087D108E52.6F1.74G8.96H-15.19I3.539J3.373K-142L100.4

$GPGGA,172802.00,3701.2578,N,07635.3303,W,1,06,1.49,00016,M,-034,M,,*5E

$GPVTG,008.7,T,018.2,M,039.7,N,073.5,K,A*2B

TSP5484A74.3B101.3C4231D112E52.6F2.06G8.83H-14.79I3.812J3.329K-142L100.4

TSP5485A72.5B101.7C4113D112E52.6F2.30G8.96H-14.38I4.335J3.954K-142L100.4

TSP5486A72.5B101.7C4296D116E52.1F2.42G8.83H-14.65I4.330J3.793K-142L100.4

TSP5487A73.9B101.7C4178D123E51.3F2.45G8.96H-13.57I4.174J3.729K-142L100.4

TSP5488A73.9B101.7C4191D127E51.3F2.33G8.96H-14.52I4.110J3.510K-142L100.4

TSP5489A73.4B102.2C4087D131E52.1F2.12G8.83H-14.38I4.242J3.695K-142L100.4

TSP5490A73.4B102.2C4113D135E52.1F1.83G8.96H-14.38I3.436J3.866K-142L100.0

TSP5491A72.9B100.8C4113D138E51.7F1.51G9.09H-13.43I3.734J3.246K-142L100.0

TSP5492A72.9B100.8C4008D142E51.3F1.19G8.96H-15.06I4.037J3.319K-142L100.4

$GPGGA,172803.00,3701.2690,N,07635.3283,W,1,06,1.49,00026,M,-034,M,,*50

$GPVTG,008.3,T,017.8,M,038.3,N,070.9,K,A*20

TSP5493A77.0B100.8C4126D146E51.7F0.89G8.83H-14.11I4.144J3.456K-142L100.4

TSP5494A77.0B100.8C4257D154E51.3F0.69G8.83H-14.25I3.964J3.134K-142L100.4

TSP5495A74.8B101.3C4309D157E50.4F0.60G8.96H-14.92I3.295J3.847K-142L100.4

TSP5496A74.8B101.3C4309D161E51.3F0.60G8.83H-14.65I3.598J3.305K-142L100.4

TSP5497A74.3B101.3C4244D165E51.7F0.69G8.83H-13.84I4.193J3.798K-142L100.4

TSP5498A74.3B101.3C4270D169E51.3F0.92G8.83H-14.11I3.890J3.285K-142L100.4

TSP5499A76.5B101.7C4244D172E50.4F1.22G8.83H-15.33I3.871J3.866K-142L100.4

TSP5500A76.5B101.7C4309D176E49.9F1.54G8.70H-14.79I3.783J3.890K-142L100.4

TSP5501A78.8B100.8C4322D184E50.4F1.86G8.83H-15.19I3.558J3.939K-142L100.4

$GPGGA,172804.00,3701.2796,N,07635.3262,W,1,06,1.49,00038,M,-034,M,,*50

$GPVTG,009.7,T,019.2,M,037.0,N,068.5,K,A*28

TSP5502A78.8B100.8C4231D187E50.4F2.15G8.83H-14.52I3.422J3.930K-142L100.4

TSP5503A76.1B101.3C4257D187E50.4F2.36G8.70H-15.47I3.588J3.807K-142L100.4

TSP5504A76.1B101.3C4362D191E50.8F2.45G8.70H-14.52I4.188J3.676K-142L100.4

TSP5505A77.9B100.4C4349D195E50.8F2.42G8.83H-14.11I4.310J3.798K-142L100.4

TSP5506A77.9B100.4C4257D199E50.4F2.27G8.83H-14.38I4.188J3.558K-142L100.4

TSP5507A73.4B100.8C4296D203E50.8F2.04G8.83H-14.79I3.978J3.319K-142L100.4

TSP5508A73.4B100.8C4453D206E51.3F1.71G8.83H-14.79I3.817J3.183K-142L100.4

TSP5509A77.9B102.2C4480D210E50.8F1.39G8.83H-15.33I4.095J3.227K-142L100.4

TSP5510A77.9B102.2C4375D214E49.9F1.07G8.83H-14.38I3.627J3.480K-142L100.4

TSP5511A74.8B102.2C4191D218E49.5F0.81G8.96H-14.38I3.305J3.851K-142L100.4

$GPGGA,172805.00,3701.2899,N,07635.3239,W,1,06,1.49,00049,M,-034,M,,*59

$GPVTG,010.7,T,020.2,M,036.0,N,066.7,K,A*27

TSP5512A74.8B102.2C4100D218E49.9F0.63G8.96H-14.65I4.017J3.227K-142L100.4

TSP5513A77.4B100.8C4100D221E50.4F0.57G8.96H-13.84I3.290J3.910K-142L100.4

TSP5514A77.4B100.8C4205D225E49.9F0.63G8.96H-14.65I4.261J3.807K-142L100.4

TSP5515A76.5B101.7C4231D229E49.9F0.78G9.09H-13.84I3.466J4.042K-142L100.4

TSP5516A76.5B101.7C4191D233E49.9F1.01G8.96H-13.97I3.812J3.881K-142L100.4

TSP5517A72.5B101.3C4231D237E49.5F1.33G8.96H-13.43I4.125J3.593K-142L100.4

TSP5518A72.5B101.3C4336D240E50.4F1.65G8.83H-14.65I3.837J3.866K-142L100.4

TSP5519A71.1B101.3C4322D244E51.3F1.98G8.96H-14.25I3.632J3.222K-142L100.4

TSP5520A71.1B101.3C4244D248E51.7F2.24G8.96H-14.11I3.866J3.446K-142L100.4

$GPGGA,172806.00,3701.3001,N,07635.3217,W,1,07,1.27,00060,M,-034,M,,*5C

$GPVTG,009.6,T,019.1,M,037.7,N,069.8,K,A*21

TSP5521A77.0B101.3C4283D252E51.3F2.39G8.83H-15.33I3.744J3.207K-142L100.4

TSP5522A77.0B101.3C4231D255E51.3F2.45G8.83H-14.38I4.037J3.475K-142L100.4

TSP5523A71.1B101.3C4336D259E51.7F2.39G8.70H-15.19I3.920J3.412K-142L100.4

TSP5524A71.1B101.3C4191D263E51.3F2.21G8.70H-14.65I3.842J3.549K-142L100.4

TSP5525A72.0B101.3C4362D267E51.3F1.92G8.57H-14.92I3.480J3.202K-142L100.0

TSP5526A72.0B101.3C4231D271E51.3F1.63G8.70H-13.02I3.886J3.524K-142L100.0

TSP5527A71.1B101.3C4296D271E51.3F1.27G8.70H-15.74I3.690J3.017K-142L100.4

TSP5528A71.1B101.3C4139D274E50.8F0.98G8.70H-15.60I4.017J3.012K-142L100.4

$GPGGA,172807.00,3701.3106,N,07635.3199,W,1,07,1.27,00071,M,-034,M,,*5E

$GPVTG,008.0,T,017.5,M,037.2,N,068.9,K,A*29

TSP5529A78.4B101.3C4139D278E50.8F0.75G8.83H-14.52I3.246J3.119K-142L100.4

TSP5530A78.4B101.3C4205D282E50.4F0.60G8.83H-14.38I3.695J3.007K-142L100.4

TSP5531A74.8B101.3C4388D286E49.0F0.57G8.83H-14.92I3.031J3.915K-142L100.4

TSP5532A74.8B101.3C4440D286E48.1F0.66G8.83H-14.38I3.798J3.392K-142L100.4

TSP5533A77.9B101.7C4440D290E48.1F0.83G8.70H-14.92I3.612J3.461K-142L100.4

TSP5534A77.9B101.7C4349D293E49.9F1.10G8.83H-13.30I3.041J3.227K-142L100.4

TSP5535A74.8B100.8C4480D293E50.4F1.42G8.96H-14.92I3.344J3.309K-142L100.4

TSP5536A74.8B100.8C4480D293E49.0F1.77G8.96H-14.52I3.851J3.436K-142L100.4

TSP5537A75.6B101.3C4427D293E49.0F2.06G8.96H-14.11I3.905J3.109K-142L100.4

$GPGGA,172808.00,3701.3214,N,07635.3183,W,1,07,1.27,00081,M,-034,M,,*55

$GPVTG,007.0,T,016.4,M,039.1,N,072.4,K,A*2D

TSP5538A75.6B101.3C4427D297E51.3F2.30G8.96H-14.92I3.656J3.344K-142L100.4

TSP5539A77.4B101.3C4375D301E53.8F2.45G9.09H-14.65I3.007J3.388K-142L100.4

TSP5540A77.4B101.3C4349D301E55.9F2.45G8.96H-14.38I3.270J3.456K-142L100.4

TSP5541A78.8B100.8C4191D301E57.9F2.33G8.96H-14.52I3.578J2.948K-142L100.4

TSP5542A78.8B100.8C4113D301E58.7F2.12G9.09H-10.58I2.997J3.681K-142L100.4

TSP5543A81.0B101.7C4205D301E59.0F1.83G8.96H-13.97I3.524J3.319K-142L100.4

TSP5544A81.0B101.7C4191D305E59.4F1.51G8.96H-13.84I3.397J3.173K-142L100.4

TSP5545A81.9B101.7C4296D308E59.4F1.16G8.96H-15.33I3.983J2.914K-142L100.4

TSP5546A81.9B101.7C4283D308E60.6F0.89G9.09H-14.25I3.461J3.353K-142L100.4

$GPGGA,172809.00,3701.3330,N,07635.3169,W,1,06,1.49,00086,M,-034,M,,*59

$GPVTG,004.3,T,013.8,M,042.6,N,078.9,K,A*28

TSP5547A81.5B101.3C4427D312E59.8F0.69G9.09H-14.38I3.519J3.065K-142L100.4

TSP5548A81.5B101.3C4414D316E57.5F0.60G9.09H-13.97I3.402J3.241K-142L100.4

TSP5549A80.1B101.3C4519D316E57.5F0.60G9.09H-15.19I2.973J3.295K-142L100.4

TSP5550A80.1B101.3C4467D320E57.9F0.69G9.09H-14.25I3.519J3.241K-142L100.4

TSP5551A81.0B100.8C4545D324E57.5F0.89G9.09H-14.79I3.641J3.202K-142L100.4

TSP5552A81.0B100.8C4467D324E57.1F1.19G8.96H-12.62I3.319J3.422K-142L100.4

TSP5553A82.9B101.7C4506D324E57.5F1.51G9.09H-15.87I3.388J3.353K-142L100.4

TSP5554A82.9B101.7C4414D327E57.9F1.86G9.09H-14.11I3.534J2.953K-142L100.4

$GPGGA,172810.00,3701.3451,N,07635.3184,W,1,05,2.01,00090,M,-034,M,,*59

$GPVTG,348.2,T,357.7,M,044.2,N,081.9,K,A*2A

TSP5555A77.9B100.8C4493D327E58.3F2.15G9.22H-14.79I3.534J3.485K-142L100.4

TSP5556A77.9B100.8C4427D327E58.7F2.36G9.09H-13.97I3.866J3.002K-142L100.4

TSP5557A76.1B100.8C4506D331E58.3F2.45G9.09H-14.65I3.715J3.353K-142L100.4

TSP5558A76.1B100.8C4427D335E57.5F2.42G9.09H-13.43I3.798J3.153K-142L100.4

TSP5559A78.4B101.7C4493D339E57.5F2.30G9.09H-14.38I3.392J3.456K-142L100.4

TSP5560A78.4B101.7C4414D339E57.5F2.06G9.09H-14.11I3.378J3.212K-142L100.4

TSP5561A83.3B101.3C4283D339E57.1F1.74G9.09H-14.79I2.978J2.953K-142L100.4

TSP5562A83.3B101.3C4126D339E56.7F1.42G9.09H-12.89I3.524J3.119K-142L100.4

TSP5563A80.1B101.3C4074D343E56.3F1.10G9.09H-14.38I3.549J3.007K-142L100.4

$GPGGA,172811.00,3701.3564,N,07635.3266,W,1,05,2.01,00095,M,-034,M,,*55

$GPVTG,320.0,T,329.5,M,049.5,N,091.7,K,A*28

TSP5564A80.1B101.3C4244D346E56.3F0.83G9.09H-14.11I3.153J2.821K-142L100.4

TSP5565A73.9B100.4C4388D346E56.7F0.66G9.09H-14.38I3.051J2.787K-142L100.4

TSP5566A73.9B100.4C4388D346E56.7F0.57G9.09H-14.52I3.124J2.929K-142L100.4

TSP5567A83.7B101.3C4322D350E56.3F0.63G9.22H-14.11I3.422J2.899K-142L100.4

TSP5568A83.7B101.3C4375D354E56.3F0.75G9.09H-13.97I2.958J3.012K-142L100.4

TSP5569A83.7B101.3C4336D354E56.3F0.98G9.09H-13.70I2.997J3.046K-142L100.4

TSP5570A83.7B101.3C4362D358E56.3F1.27G9.09H-14.25I2.938J3.021K-142L100.4

TSP5571A85.5B100.8C4296D362E55.9F1.63G8.96H-14.25I2.831J2.680K-142L100.4

TSP5572A85.5B100.8C4440D362E55.5F1.95G8.96H-14.52I2.899J2.797K-142L100.4

$GPGGA,172812.00,3701.3646,N,07635.3423,W,1,05,2.01,00100,M,-034,M,,*5F

$GPVTG,295.6,T,305.1,M,055.2,N,102.3,K,A*2E

TSP5573A92.3B101.3C4480D362E55.1F2.21G9.09H-14.11I2.968J2.738K-142L100.4

TSP5574A92.3B101.3C4336D365E54.7F2.39G9.09H-14.52I2.865J2.870K-142L100.4

TSP5575A93.2B101.7C4244D369E54.3F2.45G9.09H-13.70I2.982J2.665K-142L100.4

TSP5576A93.2B101.7C4283D369E53.8F2.39G9.09H-13.84I2.909J2.909K-142L100.4

TSP5577A91.9B101.7C4270D369E53.8F2.21G9.09H-14.65I2.846J2.646K-142L100.4

TSP5578A91.9B101.7C4336D373E53.4F1.95G9.09H-14.52I3.056J2.733K-142L100.4

TSP5579A91.9B101.7C4349D377E53.4F1.63G9.22H-13.57I2.724J2.875K-142L100.0

TSP5580A91.9B101.7C4427D377E53.8F1.30G9.09H-14.65I2.870J2.743K-142L100.4

TSP5581A90.5B101.3C4427D377E53.0F0.98G9.09H-15.33I2.914J2.953K-142L100.4

$GPGGA,172813.00,3701.3676,N,07635.3629,W,1,06,1.38,00106,M,-034,M,,*59

$GPVTG,273.6,T,283.1,M,058.7,N,108.6,K,A*2E

TSP5582A90.5B101.3C4244D377E51.7F0.75G9.09H-14.38I2.787J2.846K-142L100.4

TSP5583A92.3B101.7C4270D377E51.3F0.63G9.09H-14.52I2.851J2.919K-142L100.4

TSP5584A92.3B101.7C4126D377E51.3F0.57G9.09H-14.92I2.611J2.982K-142L100.4

TSP5585A88.2B100.8C4165D381E50.8F0.66G9.09H-14.65I2.860J2.875K-142L100.4

TSP5586A88.2B100.8C4296D384E50.4F0.83G9.09H-13.70I3.070J3.065K-142L100.4

TSP5587A90.5B100.8C4349D384E50.4F1.10G9.22H-13.57I2.997J3.080K-142L100.4

TSP5588A90.5B100.8C4480D384E49.9F1.39G9.09H-14.52I2.943J2.831K-142L100.4

TSP5589A91.9B101.3C4257D388E49.5F1.74G9.09H-15.87I3.251J2.797K-142L100.4

TSP5590A91.9B101.3C4401D388E49.5F2.06G9.09H-14.25I3.266J2.992K-142L100.4

$GPGGA,172814.00,3701.3641,N,07635.3845,W,1,06,1.38,00111,M,-034,M,,*58

$GPVTG,251.7,T,261.2,M,060.9,N,112.8,K,A*20

TSP5591A93.2B100.4C4231D384E49.5F2.30G9.09H-14.92I3.129J2.646K-142L100.4

TSP5592A93.2B100.4C4427D388E49.5F2.42G9.09H-14.38I3.227J2.719K-142L100.4

TSP5593A88.7B100.8C4270D388E49.5F2.45G9.09H-14.52I2.846J2.772K-142L100.4

TSP5594A88.7B100.8C4440D388E49.5F2.36G9.09H-15.06I2.753J2.802K-142L100.4

TSP5595A89.1B101.7C4270D392E49.5F2.12G9.09H-14.65I2.777J2.743K-142L100.4

TSP5596A89.1B101.7C4467D388E49.5F1.86G9.09H-13.02I2.899J2.836K-142L100.4

TSP5597A89.6B101.3C4283D388E49.5F1.51G9.09H-15.06I2.851J2.812K-142L100.4

TSP5598A89.6B101.3C4427D392E49.5F1.19G8.96H-14.79I2.597J2.626K-142L100.4

$GPGGA,172815.00,3701.3546,N,07635.4037,W,1,06,2.23,00113,M,-034,M,,*5C

$GPVTG,229.9,T,239.4,M,062.3,N,115.3,K,A*2E

TSP5599A88.7B101.3C4205D392E49.9F0.89G8.96H-14.52I2.948J2.753K-142L100.4

TSP5600A88.7B101.3C4362D392E49.5F0.69G8.96H-13.70I3.124J2.812K-142L100.4

TSP5601A89.6B100.8C4165D392E48.1F0.60G8.96H-14.65I3.085J2.709K-142L100.4

TSP5602A89.6B100.8C4309D392E47.6F0.60G8.96H-14.65I3.080J2.709K-142L100.4

TSP5603A92.7B101.3C4113D392E47.6F0.69G8.96H-14.65I3.017J3.021K-142L100.4

TSP5604A92.7B101.3C4283D392E47.6F0.89G8.96H-14.65I2.826J2.665K-142L100.4

TSP5605A89.6B101.7C4126D392E47.6F1.19G8.96H-13.02I3.295J2.733K-142L100.4

TSP5606A89.6B101.7C4283D392E47.6F1.51G8.96H-16.69I3.090J2.851K-142L100.4

TSP5607A91.9B100.8C4113D396E47.6F1.86G8.96H-16.01I2.934J2.738K-142L100.4

$GPGGA,172816.00,3701.3402,N,07635.4180,W,1,06,1.49,00114,M,-034,M,,*5B

$GPVTG,215.0,T,224.5,M,062.4,N,115.5,K,A*24

TSP5608A91.9B100.8C4270D400E47.6F2.12G8.96H-17.09I2.807J2.772K-142L100.4

TSP5609A84.2B99.9C4362D400E48.1F2.36G8.96H-15.06I2.938J2.958K-142L100.4

TSP5610A84.2B99.9C4506D400E48.5F2.45G8.96H-15.06I2.987J2.792K-142L100.4

TSP5611A86.4B100.8C4336D400E48.5F2.42G8.96H-14.79I2.841J2.826K-142L100.4

TSP5612A86.4B100.8C4244D403E48.1F2.30G8.96H-17.23I3.163J2.816K-142L100.4

TSP5613A86.0B101.3C4336D407E47.6F2.06G8.96H-15.06I2.895J2.724K-142L100.4

TSP5614A86.0B101.3C4480D407E47.6F1.74G8.96H-13.43I2.929J2.685K-142L100.4

TSP5615A88.2B101.3C4558D407E47.1F1.39G8.96H-13.02I2.802J3.124K-142L100.4

TSP5616A88.2B101.3C4440D407E46.1F1.10G8.96H-14.52I2.675J2.987K-142L100.4

$GPGGA,172817.00,3701.3243,N,07635.4293,W,1,06,1.49,00116,M,-034,M,,*5A

$GPVTG,210.2,T,219.7,M,061.8,N,114.5,K,A*21

TSP5617A86.4B100.8C4545D400E46.1F0.83G8.96H-15.06I2.870J2.909K-142L100.4

TSP5618A86.4B100.8C4440D400E46.6F0.66G8.96H-14.92I3.202J2.909K-142L100.4

TSP5619A86.0B101.3C4558D411E46.6F0.57G8.96H-14.38I3.388J2.943K-142L100.4

TSP5620A86.0B101.3C4427D415E47.1F0.63G8.96H-14.52I3.046J2.899K-142L100.4

TSP5621A86.9B101.3C4480D415E47.1F0.75G8.96H-10.04I2.943J2.841K-142L100.4

TSP5622A86.9B101.3C4309D415E46.6F0.98G8.83H-14.11I3.129J2.777K-142L100.4

TSP5623A87.4B101.3C4336D415E46.6F1.30G8.96H-12.75I3.334J2.836K-142L100.4

TSP5624A87.4B101.3C4205D419E46.6F1.63G8.96H-16.14I2.733J2.704K-142L100.4

TSP5625A84.6B101.3C4257D422E46.6F1.95G8.96H-15.60I3.119J2.812K-142L100.4

$GPGGA,172818.00,3701.3083,N,07635.4393,W,1,06,1.49,00119,M,-034,M,,*55

$GPVTG,207.6,T,217.1,M,060.6,N,112.3,K,A*24

TSP5626A84.6B101.3C4126D422E46.6F2.21G8.96H-14.79I2.992J2.714K-142L100.4

TSP5627A83.3B100.8C4152D422E46.1F2.39G8.96H-14.65I2.943J2.816K-142L100.4

TSP5628A83.3B100.8C4270D422E45.6F2.45G8.96H-14.92I2.733J2.934K-142L100.4

TSP5629A85.5B100.4C4349D422E45.6F2.39G8.96H-15.06I2.919J2.807K-142L100.4

TSP5630A85.5B100.4C4519D426E45.6F2.21G8.96H-14.38I2.841J2.660K-142L100.4

TSP5631A86.0B100.8C4336D430E45.1F1.95G8.96H-14.92I3.002J2.846K-142L100.4

TSP5632A86.0B100.8C4453D430E45.1F1.63G8.83H-13.16I2.865J2.646K-142L100.4

TSP5633A85.5B101.3C4218D430E45.6F1.30G8.96H-15.19I2.797J2.772K-142L100.4

TSP5634A85.5B101.3C4336D430E45.6F0.98G8.83H-14.79I2.963J2.963K-142L100.4

$GPGGA,172819.00,3701.2925,N,07635.4483,W,1,06,1.49,00122,M,-034,M,,*5E

$GPVTG,206.0,T,215.5,M,059.6,N,110.4,K,A*2A

TSP5635A84.2B101.3C4401D434E46.1F0.75G8.83H-13.84I2.997J2.997K-142L100.4

TSP5636A84.2B101.3C4532D434E46.1F0.63G8.83H-14.79I2.792J2.787K-142L100.4

TSP5637A85.5B99.9C4584D434E45.6F0.57G8.96H-14.38I2.875J2.650K-142L100.4

TSP5638A85.5B99.9C4427D438E45.6F0.66G8.96H-14.92I3.031J2.973K-142L100.4

TSP5639A86.4B99.9C4532D438E45.6F0.83G8.96H-14.38I3.505J2.890K-142L100.4

TSP5640A86.4B99.9C4453D438E45.6F1.07G8.96H-13.30I3.002J2.704K-142L100.4

TSP5641A85.1B100.8C4584D438E45.6F1.39G9.09H-13.02I3.300J2.772K-142L100.4

TSP5642A85.1B100.8C4467D438E45.6F1.71G8.96H-14.11I3.153J2.743K-142L100.4

TSP5643A85.5B100.8C4545D438E46.1F2.04G8.96H-15.87I2.670J2.606K-142L100.4

$GPGGA,172820.00,3701.2768,N,07635.4568,W,1,06,1.49,00126,M,-034,M,,*53

$GPVTG,204.3,T,213.8,M,059.2,N,109.6,K,A*2E

TSP5644A85.5B100.8C4401D441E46.1F2.27G8.96H-14.92I2.973J3.070K-142L100.4

TSP5645A87.4B101.3C4453D441E45.6F2.42G8.96H-14.65I2.772J2.748K-142L100.4

TSP5646A87.4B101.3C4283D441E45.1F2.45G8.96H-14.38I2.938J2.870K-142L100.4

TSP5647A84.6B100.4C4309D445E45.1F2.36G8.96H-14.11I3.246J2.665K-142L100.4

TSP5648A84.6B100.4C4152D445E45.6F2.15G8.96H-14.92I2.616J2.851K-142L100.4

TSP5649A86.0B100.8C4178D445E45.6F1.86G8.96H-14.92I3.109J2.924K-142L100.4

TSP5650A86.0B100.8C4283D449E45.1F1.54G8.96H-15.47I2.880J2.665K-142L100.4

TSP5651A85.1B99.9C4309D453E44.6F1.19G8.96H-16.01I2.885J2.846K-142L100.4

$GPGGA,172821.00,3701.2612,N,07635.4647,W,1,06,1.49,00128,M,-034,M,,*5E

$GPVTG,203.1,T,212.6,M,058.9,N,109.0,K,A*28

TSP5652A85.1B99.9C4440D453E44.6F0.92G8.96H-14.79I2.851J2.865K-142L100.4

TSP5653A85.5B99.9C4270D453E44.6F0.69G8.96H-14.25I2.787J2.924K-142L100.4

TSP5654A85.5B99.9C4453D453E44.6F0.60G8.96H-14.38I3.427J2.831K-142L100.4

TSP5655A84.6B99.9C4309D453E44.6F0.60G8.83H-14.79I2.807J2.880K-142L100.4

TSP5656A84.6B99.9C4506D453E44.6F0.69G8.96H-13.57I3.295J2.782K-142L100.4

TSP5657A85.1B101.3C4362D453E44.6F0.89G8.83H-14.79I3.007J2.982K-142L100.4

TSP5658A85.1B101.3C4519D457E44.6F1.16G8.83H-14.92I2.738J2.816K-142L100.4

TSP5659A87.4B100.8C4296D460E44.6F1.48G8.83H-15.74I3.222J3.002K-142L100.4

TSP5660A87.4B100.8C4388D460E44.6F1.80G8.83H-15.74I3.329J3.012K-142L100.4

$GPGGA,172822.00,3701.2458,N,07635.4723,W,1,06,1.49,00131,M,-034,M,,*5A

$GPVTG,202.6,T,212.1,M,058.0,N,107.5,K,A*2B

TSP5661A86.9B100.8C4388D460E44.6F2.12G8.70H-15.33I2.851J3.114K-142L100.4

TSP5662A86.9B100.8C4467D460E44.6F2.33G8.83H-14.38I2.948J3.031K-142L100.4

TSP5663A86.4B101.3C4453D460E45.1F2.45G8.70H-14.25I2.885J2.992K-142L100.4

TSP5664A86.4B101.3C4270D460E45.6F2.45G8.83H-14.38I2.772J2.968K-142L100.4

TSP5665A85.1B100.8C4296D460E45.6F2.30G8.96H-14.52I2.709J2.641K-142L100.4

TSP5666A85.1B100.8C4152D460E45.6F2.09G8.96H-14.79I3.017J2.846K-142L100.4

TSP5667A93.6B101.3C4218D460E46.1F1.77G8.96H-13.97I2.685J2.758K-142L100.4

TSP5668A93.6B101.3C4178D460E46.1F1.45G8.83H-14.92I2.733J2.704K-142L100.4

TSP5669A92.3B99.5C4244D460E46.1F1.13G8.96H-15.19I2.665J2.953K-142L100.4

$GPGGA,172823.00,3701.2304,N,07635.4794,W,1,06,1.49,00133,M,-034,M,,*5B

$GPVTG,200.5,T,210.0,M,057.9,N,107.2,K,A*28

TSP5670A92.3B99.5C4060D460E46.6F0.83G8.96H-14.65I2.953J2.665K-142L100.4

TSP5671A91.4B100.4C3929D460E46.1F0.66G8.96H-14.65I3.007J2.812K-142L100.4

TSP5672A91.4B100.4C3916D460E45.6F0.57G8.96H-14.79I2.729J2.646K-142L100.4

TSP5673A89.6B100.8C4100D460E45.6F0.60G8.96H-14.52I2.875J3.036K-142L100.4

TSP5674A89.6B100.8C4074D460E45.6F0.75G8.96H-14.52I2.885J2.812K-142L100.4

TSP5675A91.4B100.8C3982D460E46.1F0.95G8.96H-14.11I2.997J2.943K-142L100.4

TSP5676A91.4B100.8C3956D460E46.1F1.24G8.96H-14.65I2.997J2.602K-142L100.4

TSP5677A90.5B99.9C4139D457E45.6F1.60G9.09H-15.19I2.660J2.904K-142L100.4

TSP5678A90.5B99.9C4126D457E45.6F1.92G8.96H-13.84I2.812J2.768K-142L100.4

$GPGGA,172824.00,3701.2148,N,07635.4860,W,1,06,1.49,00134,M,-034,M,,*55

$GPVTG,198.8,T,208.3,M,059.1,N,109.4,K,A*23

TSP5679A91.4B100.8C4060D460E46.1F2.18G8.96H-14.52I2.606J2.943K-142L100.4

TSP5680A91.4B100.8C4034D460E46.1F2.39G8.96H-14.65I2.880J3.070K-142L100.4

TSP5681A87.4B100.4C4100D460E46.1F2.45G8.96H-14.79I2.694J2.729K-142L100.4

TSP5682A87.4B100.4C4074D460E46.1F2.42G8.96H-14.79I2.851J2.675K-142L100.4

TSP5683A90.0B100.4C4113D460E45.6F2.24G8.96H-14.38I3.207J2.802K-142L100.4

TSP5684A90.0B100.4C4178D460E46.1F1.98G8.96H-14.65I2.865J2.768K-142L100.4

TSP5685A90.0B100.4C4165D460E46.6F1.68G8.96H-14.11I2.929J2.860K-142L100.4

TSP5686A90.0B100.4C4231D460E46.6F1.33G8.96H-15.33I3.300J2.714K-142L100.4

TSP5687A89.1B100.4C4191D460E46.6F1.01G8.96H-15.47I3.056J2.699K-142L100.4

TSP5688A89.1B100.4C4231D460E46.6F0.78G8.96H-14.92I2.919J2.670K-142L100.4

$GPGGA,172825.00,3701.1989,N,07635.4924,W,1,06,1.49,00133,M,-034,M,,*54

$GPVTG,198.8,T,208.3,M,059.3,N,109.9,K,A*2C

TSP5689A86.9B100.4C4191D460E46.6F0.63G8.96H-14.52I3.090J3.002K-142L100.4

TSP5690A86.9B100.4C4244D460E46.6F0.57G8.96H-14.52I3.183J2.895K-142L100.4

TSP5691A88.7B100.8C4218D460E46.6F0.63G8.96H-14.65I3.212J2.680K-142L100.4

TSP5692A88.7B100.8C4257D460E46.6F0.81G8.96H-14.92I3.065J2.816K-142L100.4

TSP5693A89.1B100.4C4218D460E46.6F1.04G8.96H-12.89I2.978J2.875K-142L100.4

TSP5694A89.1B100.4C4257D460E46.1F1.36G8.96H-14.65I2.948J2.792K-142L100.4

TSP5695A88.2B100.4C4231D460E46.1F1.68G8.96H-13.57I2.890J2.948K-142L100.4

TSP5696A88.2B100.4C4296D460E46.1F2.01G8.96H-14.65I2.763J3.095K-142L100.4

$GPGGA,172826.00,3701.1830,N,07635.4989,W,1,06,1.49,00133,M,-034,M,,*53

$GPVTG,199.1,T,208.6,M,059.7,N,110.5,K,A*21

TSP5697A89.1B100.8C4270D460E46.1F2.27G8.96H-14.65I2.841J2.851K-142L100.4

TSP5698A89.1B100.8C4336D460E46.6F2.42G8.96H-13.43I2.563J2.650K-142L100.4

TSP5699A87.8B101.3C4283D464E46.6F2.45G8.96H-14.38I2.958J2.992K-142L100.4

TSP5700A87.8B101.3C4309D464E46.6F2.36G8.96H-14.65I2.626J2.724K-142L100.4

TSP5701A88.7B100.8C4257D464E46.6F2.18G8.96H-14.52I3.119J2.978K-142L100.4

TSP5702A88.7B100.8C4322D464E46.6F1.89G8.96H-14.52I2.987J2.865K-142L100.4

TSP5703A90.0B100.4C4309D464E46.6F1.54G8.96H-16.14I3.192J2.685K-142L100.4

TSP5704A90.0B100.4C4349D468E46.6F1.22G8.96H-10.86I3.090J2.772K-142L100.4

TSP5705A89.1B100.8C4322D468E46.6F0.92G8.96H-15.47I2.777J2.616K-142L100.4

$GPGGA,172827.00,3701.1672,N,07635.5055,W,1,06,1.49,00134,M,-034,M,,*54

$GPVTG,198.8,T,208.3,M,059.8,N,110.7,K,A*21

TSP5706A89.1B100.8C4401D468E46.1F0.72G8.83H-14.79I2.885J2.938K-142L100.4

TSP5707A88.2B100.4C4191D468E45.6F0.60G8.96H-15.19I3.017J2.777K-142L100.4

TSP5708A88.2B100.4C4074D468E46.1F0.60G8.96H-14.38I2.670J2.680K-142L100.4

TSP5709A88.2B100.4C4191D468E46.1F0.69G8.96H-14.65I2.860J2.890K-142L100.4

TSP5710A88.2B100.4C4388D468E45.6F0.86G8.96H-17.09I3.217J2.587K-142L100.4

TSP5711A88.2B100.4C4532D468E45.6F1.16G8.96H-15.87I3.178J2.699K-142L100.4

TSP5712A88.2B100.4C4467D472E45.6F1.48G8.96H-16.55I2.699J2.802K-142L100.4

TSP5713A88.7B100.8C4322D476E45.6F1.80G8.96H-15.87I2.758J2.831K-142L100.4

TSP5714A88.7B100.8C4257D476E45.6F2.09G8.96H-15.06I2.870J2.680K-142L100.4

$GPGGA,172828.00,3701.1514,N,07635.5120,W,1,06,1.49,00136,M,-034,M,,*59

$GPVTG,197.8,T,207.3,M,059.3,N,109.9,K,A*2C

TSP5715A86.9B101.3C4126D476E45.6F2.33G8.96H-14.52I2.792J2.831K-142L100.4

TSP5716A86.9B101.3C4060D476E45.6F2.45G8.96H-14.38I2.646J2.719K-142L100.4

TSP5717A86.4B100.8C3943D476E45.6F2.45G8.96H-14.52I3.017J2.782K-142L100.4

TSP5718A86.4B100.8C3877D476E45.6F2.30G8.96H-14.52I3.114J3.007K-142L100.4

TSP5719A89.6B101.3C4034D476E45.6F2.06G8.96H-14.52I2.934J2.797K-142L100.4

TSP5720A89.6B101.3C4231D476E45.6F1.80G9.09H-14.65I2.860J2.885K-142L100.4

TSP5721A88.7B100.4C4375D476E46.1F1.45G8.96H-14.11I2.929J2.665K-142L100.4

TSP5722A88.7B100.4C4322D476E46.6F1.13G8.96H-14.92I2.958J2.704K-142L100.4

TSP5723A87.8B100.4C4205D476E46.6F0.86G8.96H-14.38I3.197J2.709K-142L100.4

$GPGGA,172829.00,3701.1356,N,07635.5179,W,1,06,1.49,00137,M,-034,M,,*55

$GPVTG,196.4,T,205.9,M,058.9,N,109.1,K,A*2A

TSP5724A87.8B100.4C4139D479E46.6F0.66G8.96H-14.52I3.168J2.689K-142L100.4

TSP5725A86.0B99.9C3995D483E47.1F0.57G8.96H-14.65I2.709J2.582K-142L100.4

TSP5726A86.0B99.9C3956D483E47.1F0.60G8.96H-14.65I3.163J2.997K-142L100.4

TSP5727A87.4B100.4C3877D483E46.6F0.75G8.96H-14.52I3.041J2.689K-142L100.4

TSP5728A87.4B100.4C3877D483E46.6F0.95G8.96H-14.25I3.119J2.709K-142L100.4

TSP5729A87.8B100.4C4047D483E47.1F1.24G8.96H-13.43I2.919J2.890K-142L100.4

TSP5730A87.8B100.4C4270D483E47.6F1.57G8.96H-13.16I2.753J2.787K-142L100.4

TSP5731A86.0B100.8C4388D483E47.6F1.92G8.96H-14.65I2.641J2.743K-142L100.4

$GPGGA,172830.00,3701.1199,N,07635.5231,W,1,06,1.49,00139,M,-034,M,,*5D

$GPVTG,194.1,T,203.6,M,058.2,N,107.8,K,A*28

TSP5732A86.0B100.8C4309D483E47.6F2.18G8.96H-14.52I3.026J2.782K-142L100.4

TSP5733A89.1B100.4C4165D483E47.6F2.39G8.96H-14.25I2.748J2.880K-142L100.4

TSP5734A89.1B100.4C4113D487E47.6F2.45G8.96H-14.11I3.031J2.694K-142L100.4

TSP5735A91.9B99.5C4008D487E47.6F2.42G9.09H-14.79I2.797J2.816K-142L100.4

TSP5736A91.9B99.5C3982D483E47.6F2.24G9.09H-14.52I3.207J2.704K-142L100.4

TSP5737A87.4B100.4C3916D483E48.1F2.01G9.09H-14.38I2.650J2.812K-142L100.4

TSP5738A87.4B100.4C3903D483E48.5F1.68G9.09H-14.25I2.626J2.650K-142L100.4

TSP5739A93.6B100.4C3851D483E48.1F1.33G9.09H-13.97I2.577J2.611K-142L100.4

TSP5740A93.6B100.4C3969D479E48.1F1.04G9.09H-15.47I2.650J2.587K-142L100.4

$GPGGA,172831.00,3701.1040,N,07635.5261,W,1,07,1.95,00142,M,-034,M,,*50

$GPVTG,184.4,T,193.9,M,056.5,N,104.6,K,A*2D

TSP5741A96.4B100.4C3916D476E48.5F0.78G9.09H-15.06I2.646J2.641K-142L100.4

TSP5742A96.4B100.4C3903D476E48.5F0.63G9.22H-14.11I2.611J2.611K-142L100.4

TSP5743A95.0B100.8C3759D476E48.5F0.57G9.22H-13.16I2.548J2.611K-142L100.4

TSP5744A95.0B100.8C3589D476E48.5F0.63G9.22H-14.38I2.616J2.714K-142L100.4

TSP5745A93.6B100.4C3458D476E48.1F0.81G9.09H-13.70I2.626J2.572K-142L100.4

TSP5746A93.6B100.4C3471D476E47.6F1.04G9.09H-13.16I2.577J2.616K-142L100.4

TSP5747A93.6B100.4C3471D476E47.6F1.36G9.22H-13.30I2.548J2.689K-142L100.4

TSP5748A93.6B100.4C3576D476E47.6F1.68G9.22H-14.52I2.646J2.592K-142L100.4

TSP5749A93.2B100.4C3353D472E47.6F2.01G9.22H-15.74I2.694J2.636K-142L100.4

$GPGGA,172832.00,3701.0888,N,07635.5237,W,1,05,2.37,00143,M,-034,M,,*55

$GPVTG,166.1,T,175.6,M,053.6,N,099.2,K,A*24

TSP5750A93.2B100.4C3484D468E47.1F2.24G9.22H-13.16I2.548J2.650K-142L100.4

TSP5751A93.2B99.9C3288D468E46.6F2.42G9.09H-14.52I2.602J2.558K-142L100.4

TSP5752A93.2B99.9C3458D468E46.6F2.45G9.22H-8.69I2.582J2.548K-142L100.4

TSP5753A93.6B99.5C3340D468E46.6F2.39G9.22H-12.62I2.670J2.655K-142L100.4

TSP5754A93.6B99.5C3314D464E46.1F2.18G8.96H-13.97I2.543J2.563K-142L100.4

TSP5755A95.4B99.9C3222D460E45.6F1.92G8.96H-9.91I2.597J2.582K-142L100.4

TSP5756A95.4B99.9C3196D464E45.6F1.60G9.22H-11.53I2.538J2.548K-142L100.4

TSP5757A94.5B99.5C3392D468E45.6F1.24G9.22H-13.43I2.548J2.572K-142L100.4

TSP5758A94.5B99.5C3379D464E45.6F0.95G8.96H-14.52I2.733J2.670K-142L100.4

$GPGGA,172833.00,3701.0769,N,07635.5152,W,1,06,1.87,00141,M,-034,M,,*5D

$GPVTG,142.7,T,152.2,M,047.2,N,087.4,K,A*2D

TSP5759A94.5B99.9C3392D460E45.6F0.75G8.96H-15.19I2.670J2.689K-142L100.4

TSP5760A94.5B99.9C3366D460E45.1F0.60G9.22H-14.25I2.563J2.553K-142L100.4

TSP5761A95.4B100.4C3288D460E45.1F0.57G9.09H-13.97I2.563J2.626K-142L100.4

TSP5762A95.4B100.4C3432D460E45.1F0.66G9.22H-13.70I2.685J2.646K-142L100.4

TSP5763A96.8B100.4C3314D460E44.6F0.83G9.22H-13.70I2.582J2.680K-142L100.4

TSP5764A96.8B100.4C3536D460E44.6F1.10G8.96H-15.19I2.533J2.582K-142L100.4

TSP5765A95.9B99.5C3419D457E44.1F1.42G9.09H-11.53I2.704J2.538K-142L100.4

TSP5766A95.9B99.5C3392D457E44.1F1.74G9.22H-13.16I2.694J2.563K-142L100.4

$GPGGA,172834.00,3701.0704,N,07635.5027,W,1,06,1.87,00140,M,-034,M,,*53

$GPVTG,116.1,T,125.6,M,039.5,N,073.1,K,A*2E

TSP5767A95.0B99.5C3327D460E44.6F2.06G9.22H-11.67I2.655J2.606K-142L100.4

TSP5768A95.0B99.5C3353D457E44.6F2.30G8.96H-13.84I2.543J2.670K-142L100.4

TSP5769A94.1B99.5C3327D453E44.6F2.42G9.09H-14.38I2.602J2.621K-142L100.4

TSP5770A94.1B99.5C3366D453E44.6F2.45G8.96H-13.30I2.694J2.558K-142L100.4

TSP5771A93.2B98.6C3340D453E44.6F2.33G8.96H-14.92I2.548J2.670K-142L100.4

TSP5772A93.2B98.6C3379D453E44.6F2.12G9.22H-12.89I2.714J2.548K-142L100.4

TSP5773A95.0B99.0C3353D449E45.1F1.83G9.09H-13.84I2.563J2.675K-142L100.4

TSP5774A95.0B99.0C3392D445E45.1F1.51G8.96H-13.02I2.553J2.636K-142L100.4

TSP5775A95.4B99.9C3366D445E44.6F1.19G9.09H-14.92I2.685J2.563K-142L100.4

$GPGGA,172835.00,3701.0700,N,07635.4902,W,1,05,1.97,00142,M,-034,M,,*59

$GPVTG,082.5,T,091.9,M,032.2,N,059.6,K,A*24

TSP5776A95.4B99.9C3392D445E44.6F0.89G8.96H-14.52I2.724J2.543K-142L100.4

TSP5777A94.1B99.5C3366D445E44.1F0.69G8.96H-14.52I2.597J2.636K-142L100.4

TSP5778A94.1B99.5C3392D445E44.1F0.60G9.09H-13.57I2.650J2.675K-142L100.4

TSP5779A95.0B99.9C3353D441E45.1F0.60G9.09H-12.75I2.543J2.694K-142L100.8

TSP5780A95.0B99.9C3366D438E45.6F0.69G8.96H-14.65I2.563J2.655K-142L100.4

TSP5781A95.0B100.4C3327D438E45.6F0.89G8.96H-14.52I2.699J2.538K-142L100.4

TSP5782A95.0B100.4C3314D438E45.6F1.16G9.09H-13.30I2.606J2.606K-142L100.4

TSP5783A94.1B99.5C3209D438E45.6F1.48G8.96H-13.43I2.563J2.689K-142L100.4

TSP5784A94.1B99.5C3419D438E45.6F1.80G8.96H-14.25I2.670J2.543K-142L100.4

$GPGGA,172836.00,3701.0743,N,07635.4805,W,1,05,1.72,00142,M,-034,M,,*50

$GPVTG,048.6,T,058.1,M,030.8,N,057.1,K,A*2D

TSP5785A95.9B99.9C3314D438E45.1F2.12G9.09H-14.25I2.553J2.665K-142L100.4

TSP5786A95.9B99.9C3445D434E44.6F2.33G8.96H-13.97I2.646J2.558K-142L100.4

TSP5787A94.5B100.4C3340D430E44.6F2.45G8.96H-14.38I2.616J2.533K-142L100.4

TSP5788A94.5B100.4C3274D430E45.1F2.45G8.96H-14.92I2.592J2.626K-142L100.4

TSP5789A96.8B99.0C3235D430E45.1F2.30G8.96H-14.38I2.538J2.689K-142L100.4

TSP5790A96.8B99.0C3143D430E44.6F2.09G8.83H-14.25I2.543J2.641K-142L100.4

TSP5791A97.2B99.5C3274D430E44.6F1.77G8.83H-15.33I2.641J2.582K-142L100.4

TSP5792A97.2B99.5C3209D430E44.6F1.45G8.96H-11.94I2.577J2.636K-142L100.4

TSP5793A95.0B100.4C3366D430E44.6F1.13G8.96H-14.92I2.548J2.626K-142L100.4

$GPGGA,172837.00,3701.0813,N,07635.4727,W,1,06,1.49,00133,M,-034,M,,*59

$GPVTG,032.5,T,041.9,M,031.3,N,058.0,K,A*27

TSP5794A95.0B100.4C3301D430E44.6F0.86G8.96H-14.25I2.538J2.670K-142L100.4

TSP5795A97.2B99.9C3445D430E44.6F0.66G8.96H-10.45I2.567J2.611K-142L100.4

TSP5796A97.2B99.9C3379D430E44.1F0.57G8.83H-14.92I2.577J2.606K-142L100.4

TSP5797A96.8B99.9C3301D430E44.1F0.60G8.96H-15.19I2.553J2.606K-142L100.4

TSP5798A96.8B99.9C3301D430E44.6F0.72G9.09H-7.33I2.636J2.592K-142L100.4

TSP5799A95.4B99.9C3261D430E44.6F0.95G9.09H-10.58I2.558J2.670K-142L100.4

TSP5800A95.4B99.9C3274D430E44.6F1.22G8.96H-13.16I2.563J2.616K-142L100.4

TSP5801A95.0B99.9C3222D430E44.1F1.57G8.96H-14.65I2.577J2.694K-142L100.4

TSP5802A95.0B99.9C3222D430E43.6F1.89G9.09H-13.57I2.582J2.655K-142L100.4

$GPGGA,172838.00,3701.0891,N,07635.4664,W,1,06,1.49,00124,M,-034,M,,*5C

$GPVTG,030.4,T,039.9,M,031.5,N,058.3,K,A*2E

TSP5803A96.4B99.5C3432D430E43.6F2.18G9.09H-14.65I2.528J2.665K-142L100.4

TSP5804A96.4B99.5C3445D430E43.6F2.36G8.96H-14.25I2.558J2.660K-142L100.4

TSP5805A94.1B100.4C3392D430E43.1F2.45G8.96H-14.38I2.919J2.577K-142L100.4

TSP5806A94.1B100.4C3301D430E42.6F2.45G8.96H-14.11I3.026J2.987K-142L100.4

TSP5807A94.1B99.0C3445D430E43.1F2.27G8.96H-14.52I2.880J2.816K-142L100.4

TSP5808A94.1B99.0C3838D430E43.6F2.04G8.96H-14.25I2.978J2.826K-142L100.4

TSP5809A95.0B99.0C4047D430E43.6F1.71G8.83H-14.65I3.309J3.026K-142L100.4

TSP5810A95.0B99.0C4126D430E43.6F1.39G8.83H-15.19I2.880J2.924K-142L100.4

TSP5811A92.7B99.9C4060D430E43.6F1.07G8.83H-14.79I2.929J3.295K-142L100.4

$GPGGA,172839.00,3701.0964,N,07635.4603,W,1,05,2.97,00121,M,-034,M,,*51

$GPVTG,029.3,T,038.8,M,030.8,N,057.0,K,A*21

TSP5812A92.7B99.9C4218D430E44.1F0.81G8.83H-14.38I3.930J3.007K-142L100.4

TSP5813A92.3B99.5C4296D430E45.1F0.63G8.83H-14.52I3.422J3.563K-142L100.4

TSP5814A92.3B99.5C4244D426E46.1F0.57G8.96H-13.97I3.588J3.666K-142L100.4

TSP5815A84.2B99.5C4257D426E47.1F0.63G8.96H-15.06I3.485J3.353K-142L100.4

TSP5816A84.2B99.5C4296D426E48.1F0.75G8.83H-14.52I3.842J3.368K-142L100.4

TSP5817A82.4B98.6C4349D422E48.5F1.01G9.09H-14.65I3.768J3.490K-142L100.4

TSP5818A82.4B98.6C4309D426E49.0F1.30G8.96H-14.52I3.656J4.095K-142L100.4

TSP5819A80.1B99.5C4296D426E49.5F1.63G8.96H-16.01I3.598J3.651K-142L100.4

TSP5820A80.1B99.5C4283D422E49.5F1.95G9.09H-15.74I3.622J3.583K-142L100.4

$GPGGA,172840.00,3701.1041,N,07635.4549,W,1,06,1.49,00118,M,-034,M,,*54

$GPVTG,029.0,T,038.5,M,031.1,N,057.7,K,A*20

TSP5821A77.9B99.0C4152D422E49.9F2.21G9.09H-14.92I3.339J3.773K-142L100.4

TSP5822A77.9B99.0C4087D422E51.3F2.39G9.09H-13.97I3.925J3.280K-142L100.4

TSP5823A77.4B98.1C4126D422E52.1F2.45G9.09H-14.11I3.720J3.051K-142L100.4

TSP5824A77.4B98.1C4270D422E52.6F2.39G8.83H-14.65I3.978J3.319K-142L100.4

TSP5825A78.4B98.6C4283D422E53.0F2.24G8.83H-14.38I3.915J3.095K-142L100.4

TSP5826A78.4B98.6C4401D422E53.8F1.98G8.83H-15.06I4.008J3.314K-142L100.4

TSP5827A79.7B99.5C4401D422E55.1F1.65G8.70H-13.57I3.798J3.778K-142L100.4

TSP5828A79.7B99.5C4440D419E55.9F1.33G8.70H-16.01I3.344J3.407K-142L100.4

TSP5829A83.7B99.5C4414D415E56.7F1.01G8.83H-15.19I3.939J3.690K-142L100.4

$GPGGA,172841.00,3701.1129,N,07635.4492,W,1,06,1.49,00113,M,-034,M,,*56

$GPVTG,026.4,T,035.8,M,036.0,N,066.7,K,A*2F

TSP5830A83.7B99.5C4322D415E57.5F0.78G8.96H-14.65I3.500J3.309K-142L100.4

TSP5831A87.8B99.5C4349D415E58.7F0.63G9.09H-14.52I3.910J3.017K-142L100.4

TSP5832A87.8B99.5C4270D415E59.8F0.57G9.09H-14.38I3.231J3.485K-142L100.4

TSP5833A85.5B98.6C4283D415E60.6F0.63G9.09H-14.52I3.251J3.510K-142L100.4

TSP5834A85.5B98.6C4244D415E60.9F0.78G8.96H-14.38I3.720J3.266K-142L100.4

TSP5835A83.7B99.0C4336D415E61.7F1.04G8.96H-14.79I3.485J3.563K-142L100.4

TSP5836A83.7B99.0C4257D411E62.0F1.33G9.09H-14.65I3.456J3.485K-142L100.4

TSP5837A85.1B99.0C4100D411E62.0F1.68G8.96H-14.65I3.622J3.246K-142L100.4

TSP5838A85.1B99.0C4008D415E62.4F1.98G8.96H-14.38I3.065J3.324K-142L100.4

$GPGGA,172842.00,3701.1232,N,07635.4441,W,1,07,1.35,00113,M,-034,M,,*58

$GPVTG,022.8,T,032.3,M,042.0,N,077.8,K,A*27

TSP5839A83.3B99.0C4074D415E62.8F2.24G8.96H-13.97I3.275J3.558K-142L100.4

TSP5840A83.3B99.0C4270D411E63.1F2.42G8.83H-15.47I3.803J2.992K-142L100.4

TSP5841A84.6B99.0C4362D407E63.5F2.45G8.83H-15.06I3.866J2.992K-142L100.4

TSP5842A84.6B99.0C4349D407E64.5F2.39G8.83H-15.06I3.739J3.495K-142L100.4

TSP5843A84.2B99.0C4349D407E65.2F2.21G8.83H-14.92I3.300J3.510K-142L100.4

TSP5844A84.2B99.0C4205D407E65.2F1.95G8.83H-13.97I4.037J3.100K-142L100.4

TSP5845A83.3B99.5C4283D407E65.6F1.60G8.70H-15.19I3.910J3.231K-142L100.4

TSP5846A83.3B99.5C4244D403E66.3F1.27G8.83H-14.79I3.930J3.173K-142L100.4

TSP5847A85.1B99.0C4283D400E67.0F0.98G8.83H-14.11I3.441J3.734K-142L100.4

$GPGGA,172843.00,3701.1340,N,07635.4376,W,1,05,3.04,00113,M,-034,M,,*5C

$GPVTG,022.0,T,031.5,M,046.8,N,086.6,K,A*26

TSP5848A85.1B99.0C4205D400E67.6F0.75G8.96H-14.52I3.773J3.251K-142L100.4

TSP5849A83.3B98.6C4231D400E68.0F0.63G9.09H-15.06I3.754J3.041K-142L100.4

TSP5850A83.3B98.6C4336D396E68.3F0.57G8.96H-14.25I3.954J3.095K-142L100.4

TSP5851A80.1B99.5C4322D396E68.6F0.66G9.22H-13.57I3.358J3.627K-142L100.4

TSP5852A80.1B99.5C4165D396E69.3F0.81G9.35H-13.57I4.061J3.144K-142L100.4

TSP5853A81.9B99.0C4113D392E70.6F1.07G9.22H-12.48I3.954J3.368K-142L100.4

TSP5854A81.9B99.0C4113D392E71.2F1.39G9.22H-14.38I3.856J3.070K-142L100.4

TSP5855A82.9B99.0C4244D392E70.9F1.71G9.09H-15.19I3.749J3.515K-142L100.4

TSP5856A82.9B99.0C4218D392E70.6F2.01G9.09H-14.79I3.944J3.251K-142L100.4

$GPGGA,172844.00,3701.1476,N,07635.4321,W,1,08,1.22,00112,M,-034,M,,*51

$GPVTG,021.5,T,031.0,M,050.7,N,093.9,K,A*26

TSP5857A86.9B99.0C4349D392E70.6F2.27G9.09H-15.06I3.866J3.197K-142L100.4

TSP5858A86.9B99.0C4336D392E70.9F2.42G9.09H-14.25I3.422J3.563K-142L100.4

TSP5859A89.1B99.0C4257D392E71.2F2.45G9.09H-14.11I3.490J3.119K-142L100.4

TSP5860A89.1B99.0C4218D392E71.5F2.36G8.96H-14.52I3.934J3.353K-142L100.4

TSP5861A86.9B98.6C4165D396E71.8F2.18G9.09H-14.25I3.905J3.388K-142L100.4

TSP5862A86.9B98.6C4336D400E71.8F1.92G8.96H-13.16I3.505J3.285K-142L100.4

TSP5863A88.7B98.6C4231D400E71.8F1.57G8.96H-12.89I3.183J3.568K-142L100.4

TSP5864A88.7B98.6C4362D400E71.8F1.24G8.96H-13.57I3.300J3.602K-142L100.4

TSP5865A89.1B97.7C4257D403E72.5F0.95G8.96H-13.84I3.954J3.588K-142L100.4

$GPGGA,172845.00,3701.1607,N,07635.4244,W,1,05,3.04,00111,M,-034,M,,*5E

$GPVTG,022.7,T,032.2,M,054.9,N,101.7,K,A*28

TSP5866A89.1B97.7C4231D403E73.1F0.75G8.96H-14.92I3.212J3.681K-142L100.4

TSP5867A87.4B99.0C4100D403E73.1F0.60G8.83H-14.52I3.739J3.803K-142L100.4

TSP5868A87.4B99.0C4047D407E73.1F0.57G8.83H-14.92I3.309J3.641K-142L100.4

TSP5869A87.8B99.0C4113D407E73.1F0.66G8.96H-13.84I3.983J3.363K-142L100.4

TSP5870A87.8B99.0C4060D407E73.1F0.83G8.96H-14.92I3.886J3.446K-142L100.4

TSP5871A87.8B98.1C4113D411E72.8F1.10G8.83H-14.25I3.778J3.651K-142L100.4

TSP5872A87.8B98.1C4047D415E72.8F1.42G8.96H-16.14I3.295J3.607K-142L100.4

TSP5873A88.2B97.7C4087D415E73.1F1.74G8.96H-11.80I3.690J3.602K-142L100.4

TSP5874A88.2B97.7C4205D415E73.1F2.06G8.96H-15.47I3.827J3.187K-142L100.4

$GPGGA,172846.00,3701.1761,N,07635.4177,W,1,07,1.95,00114,M,-034,M,,*52

$GPVTG,023.1,T,032.6,M,055.8,N,103.3,K,A*2D

TSP5875A86.4B98.6C4244D415E72.8F2.30G8.96H-14.38I3.754J3.197K-142L100.4

TSP5876A86.4B98.6C4362D415E72.2F2.42G8.83H-14.92I3.344J3.412K-142L100.4

TSP5877A83.3B99.0C4205D415E71.8F2.45G8.96H-14.38I3.803J3.217K-142L100.4

TSP5878A83.3B99.0C4309D415E71.8F2.36G8.83H-15.19I3.842J3.524K-142L100.4

TSP5879A88.7B98.6C4152D415E71.8F2.15G8.96H-14.65I3.295J3.646K-142L100.4

TSP5880A88.7B98.6C4283D415E72.5F1.86G8.83H-13.30I3.676J3.129K-142L100.4

TSP5881A88.7B98.6C4139D415E73.4F1.54G9.22H-14.92I3.934J3.148K-142L100.4

TSP5882A88.7B98.6C4257D419E73.7F1.22G8.96H-14.65I3.622J3.158K-142L100.4

TSP5883A90.0B99.0C4113D422E74.0F0.92G9.09H-14.52I3.178J3.637K-142L100.4

$GPGGA,172847.00,3701.1905,N,07635.4097,W,1,06,2.87,00118,M,-034,M,,*5D

$GPVTG,022.4,T,031.9,M,056.1,N,103.9,K,A*25

TSP5884A90.0B99.0C4244D426E74.0F0.72G8.96H-14.92I3.358J3.563K-142L100.4

TSP5885A87.8B99.0C4113D426E74.0F0.60G9.09H-14.65I3.690J3.554K-142L100.4

TSP5886A87.8B99.0C4218D422E74.3F0.60G8.96H-14.11I3.817J3.305K-142L100.4

TSP5887A89.1B98.6C4270D422E74.6F0.69G8.96H-15.19I3.759J3.114K-142L100.4

TSP5888A89.1B98.6C4388D426E74.9F0.86G8.96H-14.79I3.847J3.515K-142L100.4

TSP5889A89.6B99.0C4440D430E74.9F1.16G8.96H-13.57I3.886J3.632K-142L100.4

TSP5890A89.6B99.0C4362D434E74.9F1.45G8.96H-15.33I3.685J3.100K-142L100.4

TSP5891A89.6B98.6C4401D434E75.2F1.80G8.96H-14.92I3.798J3.222K-142L100.4

TSP5892A89.6B98.6C4296D434E75.2F2.09G8.96H-14.38I3.358J3.544K-142L100.4

$GPGGA,172848.00,3701.2054,N,07635.4025,W,1,07,1.95,00121,M,-034,M,,*5E

$GPVTG,023.5,T,033.0,M,056.8,N,105.3,K,A*2B

TSP5893A89.1B99.0C4336D438E75.2F2.33G8.83H-15.06I3.334J3.558K-142L100.4

TSP5894A89.1B99.0C4244D438E74.9F2.45G8.96H-14.52I3.759J3.212K-142L100.4

TSP5895A86.0B98.6C4309D438E74.3F2.45G8.83H-15.06I3.378J3.275K-142L100.4

TSP5896A86.0B98.6C4231D441E74.3F2.33G8.83H-14.11I3.187J3.685K-142L100.4

TSP5897A89.1B98.1C4283D445E74.0F2.12G8.83H-15.33I3.334J3.622K-142L100.4

TSP5898A89.1B98.1C4218D445E73.4F1.83G8.83H-13.02I3.495J3.720K-142L100.4

TSP5899A89.6B98.1C4270D449E73.4F1.48G8.70H-15.47I4.013J3.329K-142L100.0

TSP5900A89.6B98.1C4205D453E73.7F1.16G8.83H-14.79I3.720J3.158K-142L100.4

TSP5901A90.0B98.6C4257D453E73.7F0.89G8.83H-14.52I3.925J3.456K-142L100.4

$GPGGA,172849.00,3701.2205,N,07635.3954,W,1,06,2.23,00125,M,-034,M,,*5A

$GPVTG,021.5,T,031.0,M,055.9,N,103.6,K,A*2A

TSP5902A90.0B98.6C4218D457E73.7F0.69G9.22H-14.11I3.949J3.475K-142L100.4

TSP5903A87.8B98.1C4283D460E73.1F0.60G9.09H-14.25I3.964J3.139K-142L100.4

TSP5904A87.8B98.1C4244D460E72.8F0.60G9.09H-14.38I3.729J3.124K-142L100.4

TSP5905A90.9B99.0C4349D460E72.5F0.69G9.09H-14.79I3.402J3.017K-142L100.4

TSP5906A90.9B99.0C4296D464E71.2F0.89G9.09H-10.58I3.212J2.772K-142L100.4

TSP5907A96.4B99.5C4336D468E70.3F1.19G8.83H-15.06I2.587J2.753K-142L100.4

TSP5908A96.4B99.5C4231D472E69.3F1.51G8.83H-14.65I2.558J2.636K-142L100.4

TSP5909A101.7B97.7C4231D476E68.3F1.83G8.83H-15.19I2.606J2.538K-142L100.4

$GPGGA,172850.00,3701.2359,N,07635.3896,W,1,06,2.23,00130,M,-034,M,,*51

$GPVTG,019.5,T,028.9,M,054.6,N,101.2,K,A*28

TSP5910A101.7B97.7C4349D479E67.0F2.12G8.83H-14.65I2.523J2.602K-142L100.4

TSP5911A102.6B98.1C4414D483E65.9F2.33G8.83H-15.06I2.621J2.592K-142L100.4

TSP5912A102.6B98.1C4283D483E65.2F2.45G8.83H-15.19I2.538J2.611K-142L100.4

TSP5913A102.6B98.1C3995D487E64.2F2.45G8.83H-14.92I2.519J2.616K-142L100.4

TSP5914A102.6B98.1C3929D491E63.1F2.30G8.83H-14.25I2.670J2.548K-142L100.4

TSP5915A101.7B99.0C3890D491E62.0F2.06G8.96H-14.11I2.641J2.582K-142L100.4

TSP5916A101.7B99.0C4034D495E60.9F1.77G8.96H-14.52I2.602J2.641K-142L100.4

TSP5917A101.3B97.7C3903D498E60.2F1.42G8.96H-13.02I2.646J2.558K-142L100.4

TSP5918A101.3B97.7C3916D498E59.8F1.13G8.83H-15.06I2.533J2.597K-142L100.4

$GPGGA,172851.00,3701.2500,N,07635.3829,W,1,06,1.49,00133,M,-034,M,,*52

$GPVTG,019.5,T,029.0,M,051.2,N,094.9,K,A*27

TSP5919A99.9B97.2C3641D502E59.0F0.83G8.96H-14.65I2.597J2.631K-142L100.4

TSP5920A99.9B97.2C3510D506E57.9F0.66G8.96H-15.06I2.621J2.528K-142L100.4

TSP5921A101.3B97.7C3615D506E57.1F0.57G8.96H-14.38I2.616J2.641K-142L100.0

TSP5922A101.3B97.7C3812D506E56.7F0.60G8.96H-14.79I2.665J2.616K-142L100.4

TSP5923A101.3B98.1C3943D510E55.9F0.75G8.83H-15.19I2.567J2.675K-142L100.4

TSP5924A101.3B98.1C3877D514E54.7F0.95G8.96H-14.52I2.528J2.631K-142L100.4

TSP5925A101.7B98.6C3772D518E53.4F1.24G8.96H-14.52I2.670J2.572K-142L100.4

TSP5926A101.7B98.6C3759D521E52.6F1.57G8.96H-15.19I2.558J2.646K-142L100.4

TSP5927A99.0B98.1C3746D521E52.1F1.92G8.96H-12.62I2.538J2.597K-142L100.4

$GPGGA,172852.00,3701.2627,N,07635.3775,W,1,07,1.28,00141,M,-034,M,,*52

$GPVTG,022.1,T,031.6,M,045.3,N,083.9,K,A*26

TSP5928A99.0B98.1C3589D521E51.7F2.18G8.83H-14.65I2.646J2.548K-142L100.4

TSP5929A99.0B98.6C3432D525E51.3F2.39G8.96H-14.79I2.519J2.606K-142L100.4

TSP5930A99.0B98.6C3379D529E51.3F2.45G8.70H-14.79I2.631J2.572K-142L100.4

TSP5931A97.7B98.6C3563D529E50.4F2.42G8.83H-10.99I2.621J2.606K-142L100.0

TSP5932A97.7B98.6C3563D529E49.0F2.27G8.83H-15.19I2.543J2.670K-142L100.4

TSP5933A97.7B98.6C3523D529E48.5F2.01G8.70H-15.19I2.538J2.685K-142L100.4

TSP5934A97.7B98.6C3301D533E48.1F1.68G8.70H-15.19I2.611J2.558K-142L100.4

TSP5935A99.5B99.0C3314D537E47.6F1.36G8.96H-14.25I2.553J2.606K-142L100.0

TSP5936A99.5B99.0C3405D537E47.1F1.04G8.83H-15.19I2.587J2.606K-142L100.4

$GPGGA,172853.00,3701.2738,N,07635.3724,W,1,06,2.23,00147,M,-034,M,,*57

$GPVTG,025.2,T,034.7,M,039.1,N,072.5,K,A*2D

TSP5937A97.7B97.7C3458D537E46.6F0.81G8.96H-14.11I2.538J2.631K-142L100.4

TSP5938A97.7B97.7C3589D537E46.1F0.63G8.96H-12.21I2.670J2.558K-142L100.4

TSP5939A97.2B98.1C3405D537E45.6F0.57G8.96H-13.97I2.626J2.641K-142L100.4

TSP5940A97.2B98.1C3576D540E45.6F0.63G8.83H-14.52I2.543J2.582K-142L100.4

TSP5941A98.1B98.1C3432D544E45.6F0.78G8.83H-14.25I2.685J2.572K-142L100.4

TSP5942A98.1B98.1C3366D544E45.1F1.01G8.83H-15.19I2.704J2.689K-142L100.4

TSP5943A97.7B98.1C3235D548E45.1F1.30G8.83H-13.02I2.592J2.572K-142L100.4

TSP5944A97.7B98.1C3170D548E45.1F1.63G8.96H-14.92I2.563J2.563K-142L100.4

TSP5945A97.2B97.7C3327D544E44.6F1.98G8.96H-14.65I2.611J2.646K-142L100.4

$GPGGA,172854.00,3701.2833,N,07635.3677,W,1,06,2.23,00151,M,-034,M,,*54

$GPVTG,024.4,T,033.9,M,034.8,N,064.4,K,A*21

TSP5946A97.2B97.7C3288D544E44.1F2.21G8.96H-13.97I2.646J2.636K-142L100.0

TSP5947A97.7B98.6C3484D544E43.1F2.39G8.96H-14.65I2.621J2.680K-142L100.4

TSP5948A97.7B98.6C3471D544E42.6F2.45G8.96H-14.52I2.660J2.558K-142L100.0

TSP5949A96.4B98.1C3432D544E42.6F2.39G8.96H-14.52I2.655J2.680K-142L100.0

TSP5950A96.4B98.1C3196D548E42.0F2.21G8.83H-14.52I2.694J2.587K-142L100.4

TSP5951A97.2B97.7C3183D552E41.5F1.95G8.83H-14.52I2.733J2.567K-142L100.4

TSP5952A97.2B97.7C3222D552E40.9F1.63G8.83H-15.19I2.563J2.626K-142L100.0

TSP5953A98.6B98.1C3209D552E40.4F1.30G8.83H-15.74I2.763J2.543K-142L100.4

TSP5954A98.6B98.1C3274D552E40.4F1.01G8.96H-14.25I2.597J2.572K-142L100.0

$GPGGA,172855.00,3701.2918,N,07635.3638,W,1,06,2.23,00153,M,-034,M,,*54

$GPVTG,022.3,T,031.8,M,031.6,N,058.4,K,A*27

TSP5955A95.0B98.6C3288D552E40.4F0.75G8.83H-15.06I2.704J2.616K-142L100.4

TSP5956A95.0B98.6C3366D552E40.4F0.63G8.96H-14.92I2.538J2.621K-142L100.4

TSP5957A94.5B98.1C3261D552E39.8F0.57G8.70H-15.47I2.694J2.572K-142L100.4

TSP5958A94.5B98.1C3366D552E39.2F0.63G8.83H-14.11I2.763J2.650K-142L100.4

TSP5959A95.0B97.2C3419D552E39.2F0.81G8.83H-15.33I2.724J2.655K-142L100.0

TSP5960A95.0B97.2C3392D552E39.2F1.04G8.83H-13.43I2.558J2.538K-142L100.0

TSP5961A96.4B97.7C3183D552E39.2F1.36G8.83H-13.57I2.602J2.553K-142L100.4

TSP5962A96.4B97.7C3039D552E39.2F1.68G8.83H-13.57I2.675J2.543K-142L100.0

TSP5963A95.9B98.1C3117D552E39.2F2.01G8.96H-13.97I2.704J2.694K-142L100.4

$GPGGA,172856.00,3701.2996,N,07635.3602,W,1,06,2.23,00155,M,-034,M,,*5E

$GPVTG,020.8,T,030.3,M,028.8,N,053.3,K,A*2E

TSP5964A95.9B98.1C3248D552E39.2F2.27G8.96H-14.65I2.543J2.699K-142L100.4

TSP5965A96.4B96.8C3340D552E39.2F2.42G8.96H-14.25I2.763J2.563K-142L100.4

TSP5966A96.4B96.8C3222D552E39.2F2.45G8.96H-14.65I2.675J2.646K-142L100.0

TSP5967A96.4B98.1C3065D552E38.7F2.36G8.83H-15.06I2.587J2.694K-142L100.4

TSP5968A96.4B98.1C3222D552E38.1F2.18G8.83H-14.38I2.567J2.597K-142L100.0

TSP5969A97.2B98.6C3314D552E38.1F1.92G8.96H-14.92I2.699J2.704K-142L100.0

TSP5970A97.2B98.6C3458D552E37.5F1.60G8.83H-14.52I2.626J2.616K-142L100.4

TSP5971A98.1B98.6C3288D552E36.9F1.27G8.96H-13.84I2.729J2.621K-142L100.0

$GPGGA,172857.00,3701.3067,N,07635.3570,W,1,05,1.54,00153,M,-034,M,,*59

$GPVTG,013.5,T,023.0,M,027.1,N,050.1,K,A*25

TSP5972A98.1B98.6C3196D552E36.9F0.98G8.96H-13.84I2.665J2.660K-142L100.4

TSP5973A97.2B98.6C3052D552E36.9F0.75G8.83H-14.92I2.782J2.704K-142L100.4

TSP5974A97.2B98.6C3170D552E36.9F0.60G8.83H-13.16I3.300J2.797K-142L100.4

TSP5975A94.1B98.6C3301D548E36.9F0.57G8.96H-14.52I2.968J2.641K-142L100.4

TSP5976A94.1B98.6C3497D548E36.9F0.66G8.96H-14.79I2.650J2.631K-142L100.4

TSP5977A97.2B98.6C3667D552E37.5F0.83G8.96H-14.38I2.719J2.587K-142L100.4

TSP5978A97.2B98.6C3838D552E38.1F1.10G8.96H-14.65I2.650J2.646K-142L100.0

TSP5979A101.3B98.1C3746D548E38.1F1.39G8.83H-13.97I2.753J2.665K-142L100.0

TSP5980A101.3B98.1C3576D544E38.1F1.71G8.70H-15.33I2.519J2.553K-142L100.0

TSP5981A96.4B98.1C3497D544E38.1F2.04G8.83H-14.52I2.611J2.558K-142L100.0

$GPGGA,172858.00,3701.3139,N,07635.3557,W,1,07,1.28,00153,M,-034,M,,*50

$GPVTG,005.7,T,015.2,M,026.6,N,049.2,K,A*2A

TSP5982A96.4B98.1C3576D544E38.1F2.27G8.83H-14.92I2.577J2.548K-142L100.4

TSP5983A94.5B97.7C3432D544E38.1F2.42G8.83H-14.11I2.792J2.665K-142L100.0

TSP5984A94.5B97.7C3379D548E38.1F2.45G8.96H-13.84I2.631J2.558K-142L100.0

TSP5985A96.8B97.7C3301D552E38.1F2.36G8.96H-14.25I2.899J2.631K-142L100.0

TSP5986A96.8B97.7C3536D548E38.1F2.15G8.96H-14.79I3.012J2.602K-142L100.0

TSP5987A92.3B97.7C3405D544E38.1F1.86G8.96H-13.30I2.665J2.729K-142L100.0

TSP5988A92.3B97.7C3497D544E38.1F1.54G8.83H-14.25I2.680J2.567K-142L100.4

TSP5989A98.6B97.2C3432D544E38.1F1.22G8.83H-15.74I2.597J2.611K-142L100.0

$GPGGA,172859.00,3701.3208,N,07635.3546,W,1,06,2.88,00153,M,-034,M,,*58

$GPVTG,004.9,T,014.4,M,027.1,N,050.2,K,A*2C

TSP5990A98.6B97.2C3628D544E38.1F0.95G8.96H-14.52I2.631J2.611K-142L100.4

TSP5991A99.0B97.2C3746D544E38.1F0.72G8.96H-14.38I2.753J2.626K-142L100.0

TSP5992A99.0B97.2C3641D544E38.1F0.60G8.83H-15.60I2.885J2.704K-142L100.4

TSP5993A97.7B97.2C3471D544E38.1F0.57G8.83H-14.11I2.597J2.694K-142L100.4

TSP5994A97.7B97.2C3353D540E38.1F0.66G8.96H-14.52I2.655J2.611K-142L100.4

TSP5995A99.0B97.7C3432D537E38.7F0.86G8.96H-14.65I2.650J2.650K-142L100.4

TSP5996A99.0B97.7C3563D537E39.2F1.13G8.83H-13.30I2.904J2.665K-142L100.4

TSP5997A96.8B97.2C3641D537E39.2F1.45G8.83H-14.52I2.895J2.641K-142L100.0

TSP5998A96.8B97.2C3785D537E39.2F1.77G8.83H-15.19I2.924J2.631K-142L100.0

$GPGGA,172900.00,3701.3279,N,07635.3536,W,1,06,2.88,00152,M,-034,M,,*55

$GPVTG,005.0,T,014.5,M,027.5,N,051.0,K,A*22

TSP5999A94.1B97.7C3812D537E39.2F2.06G8.83H-15.06I2.777J2.675K-142L100.0

TSP6000A94.1B97.7C3772D537E39.2F2.30G8.83H-14.25I3.402J3.085K-142L100.0

TSP6001A96.8B97.7C3890D537E39.8F2.45G8.83H-14.52I3.925J3.534K-142L100.0

TSP6002A96.8B97.7C4100D537E40.4F2.45G8.83H-14.38I3.300J3.202K-142L100.0

TSP6003A92.7B96.8C4375D537E40.9F2.33G8.83H-14.52I4.193J3.563K-142L100.0

TSP6004A92.7B96.8C4388D533E42.0F2.12G8.96H-14.38I3.685J4.071K-142L100.4

TSP6005A83.3B96.4C4362D529E43.1F1.83G8.83H-13.02I3.978J3.183K-142L100.0

TSP6006A83.3B96.4C4414D529E44.1F1.51G8.96H-15.74I3.773J3.778K-142L100.4

TSP6007A83.7B97.2C4453D529E45.1F1.19G8.83H-15.60I3.998J3.886K-142L100.0

$GPGGA,172901.00,3701.3357,N,07635.3530,W,1,07,1.95,00151,M,-034,M,,*52

$GPVTG,006.6,T,016.1,M,028.6,N,053.0,K,A*2F

TSP6008A83.7B97.2C4336D529E46.1F0.89G8.96H-14.79I4.257J3.886K-142L100.0

TSP6009A84.2B96.8C4296D529E46.6F0.69G8.96H-14.38I4.257J3.676K-142L100.0

TSP6010A84.2B96.8C4126D529E47.1F0.60G9.09H-14.65I4.159J3.807K-142L100.4

TSP6011A83.7B96.8C4309D529E48.1F0.60G8.96H-14.79I3.515J4.061K-142L100.4

TSP6012A83.7B96.8C4178D529E49.0F0.69G8.96H-14.25I4.203J3.827K-142L100.0

TSP6013A83.7B97.2C4388D529E49.9F0.89G8.83H-14.38I4.213J3.754K-142L100.4

TSP6014A83.7B97.2C4375D529E50.4F1.16G8.96H-14.38I4.061J3.402K-142L100.0

TSP6015A82.9B96.4C4453D529E50.4F1.51G8.83H-15.19I4.130J3.368K-142L100.0

TSP6016A82.9B96.4C4375D529E50.8F1.83G8.83H-15.87I3.558J3.519K-142L100.0

$GPGGA,172902.00,3701.3439,N,07635.3513,W,1,06,2.88,00151,M,-034,M,,*51

$GPVTG,008.7,T,018.2,M,033.3,N,061.6,K,A*25

TSP6017A81.9B97.7C4362D529E51.3F2.12G8.96H-14.65I4.008J3.217K-142L100.0

TSP6018A81.9B97.7C4362D533E51.3F2.33G8.96H-14.65I3.392J3.510K-142L100.0

TSP6019A81.9B96.4C4296D537E51.3F2.45G8.96H-11.13I3.236J3.827K-142L100.0

TSP6020A81.9B96.4C4218D537E51.7F2.45G8.96H-14.52I3.451J3.573K-142L100.0

TSP6021A84.6B97.2C4139D537E52.6F2.30G9.09H-14.65I3.305J3.973K-142L100.0

TSP6022A84.6B97.2C4126D537E53.4F2.06G9.09H-13.70I3.388J3.793K-142L100.0

TSP6023A88.2B97.7C4257D540E54.3F1.77G9.09H-15.33I3.397J3.485K-142L100.0

TSP6024A88.2B97.7C4231D544E55.1F1.45G9.22H-15.47I3.495J3.915K-142L100.0

TSP6025A87.4B97.2C4336D544E55.5F1.13G9.09H-14.65I4.125J3.773K-142L100.0

$GPGGA,172903.00,3701.3540,N,07635.3491,W,1,06,1.49,00147,M,-034,M,,*5D

$GPVTG,006.6,T,016.1,M,039.0,N,072.3,K,A*29

TSP6026A87.4B97.2C4296D548E55.9F0.86G9.09H-13.84I3.861J3.144K-142L100.4

TSP6027A86.0B97.2C4388D548E56.3F0.66G9.09H-14.52I3.451J3.778K-142L100.0

TSP6028A86.0B97.2C4388D548E56.3F0.57G9.09H-14.65I3.256J3.822K-142L100.4

TSP6029A82.9B97.7C4309D552E56.3F0.60G9.22H-14.65I4.149J3.261K-142L100.0

TSP6030A82.9B97.7C4309D552E56.7F0.72G9.22H-14.52I3.788J3.847K-142L100.0

TSP6031A85.1B96.4C4205D552E57.1F0.92G9.22H-14.38I4.115J3.378K-142L100.0

TSP6032A85.1B96.4C4178D556E57.5F1.22G9.22H-13.97I4.017J3.695K-142L100.0

TSP6033A84.6B97.2C4087D560E57.9F1.57G9.22H-13.02I3.910J3.148K-142L100.0

TSP6034A84.6B97.2C4047D560E57.5F1.89G9.22H-14.11I4.076J3.251K-142L100.0

$GPGGA,172904.00,3701.3658,N,07635.3497,W,1,06,1.38,00148,M,-034,M,,*5F

$GPVTG,356.5,T,006.0,M,045.0,N,083.3,K,A*29

TSP6035A85.1B97.2C4152D560E57.5F2.15G9.22H-14.79I4.095J3.607K-142L100.0

TSP6036A85.1B97.2C4139D560E58.3F2.36G9.22H-13.84I3.183J4.017K-142L100.0

TSP6037A81.5B96.4C4309D560E58.7F2.45G9.22H-14.38I3.793J3.417K-142L100.0

TSP6038A81.5B96.4C4296D560E58.7F2.42G9.22H-13.97I3.783J3.847K-142L100.0

TSP6039A83.7B96.4C4440D563E58.7F2.27G9.22H-13.97I4.130J3.700K-142L100.0

TSP6040A83.7B96.4C4401D567E58.7F2.04G9.22H-14.38I3.705J3.231K-142L100.4

TSP6041A85.5B96.4C4322D567E59.0F1.74G9.22H-12.62I3.978J3.456K-142L100.0

TSP6042A85.5B96.4C4322D567E59.4F1.42G9.22H-13.97I3.441J3.749K-142L100.0

TSP6043A88.2B96.8C4309D567E59.4F1.10G9.22H-13.84I4.056J3.749K-142L100.0

$GPGGA,172905.00,3701.3775,N,07635.3551,W,1,05,1.51,00139,M,-034,M,,*51

$GPVTG,336.1,T,345.6,M,045.3,N,084.0,K,A*2E

TSP6044A88.2B96.8C4349D567E59.4F0.83G9.22H-14.11I3.978J3.490K-142L100.0

TSP6045A89.1B97.2C4257D567E59.4F0.66G9.22H-14.25I3.671J3.139K-142L100.0

TSP6046A89.1B97.2C4218D567E59.4F0.57G9.22H-13.84I3.480J3.837K-142L100.0

TSP6047A88.2B97.2C4152D571E59.8F0.60G9.35H-13.97I4.022J3.290K-142L100.0

TSP6048A88.2B97.2C4191D575E60.2F0.75G9.35H-14.11I4.120J3.187K-142L100.0

TSP6049A88.2B97.2C4126D575E60.2F0.95G9.35H-13.97I3.519J3.651K-142L100.0

